Name,Latitude,Longitude,Classification
Stoneboat,53.3206722432407,-6.292227745526691,Pub
McGarrys,53.3216904918104,-6.279568847508191,Pub
Peggy Kellys Lounge,53.3238486147902,-6.27855128038113,Pub
McGowan's,53.323330000000006,-6.280096,Pub
Rosie O'Gradys,53.32042039776729,-6.279167155668111,Pub
Rody Bolands,53.321160230360896,-6.2653687376013,Pub
The Bowery,53.324304809900106,-6.26494890510026,Pub
M B Slattery's,53.322100496097,-6.26586220321891,Pub
Mother Reillys Bar & Restaurant,53.3207846010731,-6.26533357192945,Pub
Taphouse,53.325130558915994,-6.254352239168509,Pub
McSorley's,53.323335534001,-6.250068133680849,Pub
Smyth's of Ranelagh,53.324145672926505,-6.25245055869774,Pub
Birchalls,53.323353531676204,-6.250219776579959,Pub
T. Humphreys,53.3241629663591,-6.25230749412874,Pub
McCloskeys,53.3254453087716,-6.2407185212906695,Pub
Arthur Mayne's Pub,53.32162911008351,-6.2352647825903205,Pub
Ciss Madden's,53.322331999999996,-6.236676,Pub
Longs,53.322196770785595,-6.2364363670349094,Pub
Harold House,53.328371,-6.274506,Bar
The Grove Inn,53.32973198087,-6.27069127629276,Pub
Blackbird,53.3268708992674,-6.2648036637060205,Pub
The Bowery,53.324304809900106,-6.26494890510026,Pub
The Portobello,53.3301657772182,-6.264109440039201,Pub
Taphouse,53.325130558915994,-6.254352239168509,Pub
The Hill,53.326743237062,-6.258362550142231,Pub
Corrigans Bar & Lounge,53.3273986223989,-6.25507605982288,Pub
Mespil Bar,53.330225497097594,-6.2488281015430704,Pub
McCloskeys,53.3254453087716,-6.2407185212906695,Pub
The Bridge 1859,53.3293188357814,-6.23176753877136,Pub
Paddy Cullen's,53.3288918226529,-6.230473827823451,Pub
Mary Mac's,53.328838339736,-6.23058277510184,Pub
Crowes,53.3288667751735,-6.230706214534839,Pub
The Bridge 1859,53.3293188357814,-6.23176753877136,Pub
Paddy Cullen's,53.3288918226529,-6.230473827823451,Pub
Horse Show House,53.3286510743047,-6.228848449375679,Pub
Mary Mac's,53.328838339736,-6.23058277510184,Pub
Crowes,53.3288667751735,-6.230706214534839,Pub
Lowe's,53.3337812493509,-6.29087631419026,Pub
Lowe's,53.3337812493509,-6.29087631419026,Pub
57 The Headline,53.332436,-6.275473000000001,Pub
Leonard's Corner,53.332246558897104,-6.27521856538296,Pub
MVP,53.330481999999996,-6.2754707000000005,Pub
57 The Headline,53.332436,-6.275473000000001,Pub
Leonard's Corner,53.332246558897104,-6.27521856538296,Pub
The Grove Inn,53.32973198087,-6.27069127629276,Pub
The Bernard Shaw,53.3317121177475,-6.2642640723932805,Pub
J O'Connell,53.330648877971605,-6.264318237265071,Pub
The Bleeding Horse,53.3336117867054,-6.2648855271951405,Pub
Camden Exchange,53.335083,-6.265473,Pub
Anseo,53.335319173537904,-6.2652243068888405,Pub
The Portobello,53.3301657772182,-6.264109440039201,Pub
Cassidy's,53.3340209001384,-6.265095517482309,Bar
The Lower Deck,53.3306858346669,-6.26520101914857,Pub
The Black Door,53.3342950075055,-6.26285588310248,Bar
The Barge,53.3304927456238,-6.26052495338891,Pub
Alfie Byrne's,53.334713957508896,-6.25759682999282,Pub
Kobra Bar,53.333955,-6.255158,Pub
M O'Brien's Bar & Lounge,53.331294134609,-6.251571808386849,Pub
The Leeson Lounge,53.3313,-6.2519903,Pub
The Sussex,53.33133191458511,-6.251560762172169,Gastropub
Mespil Bar,53.330225497097594,-6.2488281015430704,Pub
The Waterloo Bar,53.3332586053406,-6.24337990835938,Pub
Searson's,53.33321667889871,-6.243006639411139,Pub
The 51 Bar,53.334732037645395,-6.24250752660753,Pub
Smyths of Haddington Road,53.3346991235061,-6.24327476824324,Pub
The Wellington,53.33402759113051,-6.24526338126583,Pub
The Dubliner,53.3319901342124,-6.234460838598849,Pub
The Bird Flanagan,53.3365613342062,-6.29919591806609,Pub
The Circular,53.336201,-6.297937,Pub
Tenters Gastropub,53.337125,-6.275574,Pub
Pimlico Tavern,53.3401764925105,-6.2809522373919,Pub
The Lamplighter,53.339864,-6.277998999999999,Pub
The Fourth Corner,53.338924,-6.2724113,Pub
Fallon's Pub,53.33909534288011,-6.27302643348212,Pub
Tenters Gastropub,53.337125,-6.275574,Pub
Whelan's,53.336594674733604,-6.26558419653389,Pub
Devitt's,53.335558,-6.2654559999999995,Pub
Club Chonradh na Gaeilge,53.3372101521544,-6.26288171852085,Pub
The Swan Bar,53.339466794064705,-6.265664314804719,Pub
Anseo,53.335319173537904,-6.2652243068888405,Pub
Camden Exchange,53.335083,-6.265473,Pub
The Landmark,53.337433,-6.26593,Pub
Against The Grain,53.3370264001321,-6.26551717970497,Beer Bar
The Lucky Duck,53.33837976614329,-6.266021972951091,Pub
The Jar,53.336992044319295,-6.265688250393731,Pub
Ryan's,53.336414796266496,-6.26563579363873,Pub
Flannerys,53.3360584257339,-6.265312109162821,Pub
Cassidy's,53.3340209001384,-6.265095517482309,Bar
Dicey's Garden,53.335858053314,-6.263961320677309,Beer Garden
Planet Murphy's,53.3358702954949,-6.26538276672363,Pub
The Black Door,53.3342950075055,-6.26285588310248,Bar
The Camden,53.33599399999999,-6.265587,Pub
O'Donoghue's,53.3383143721128,-6.25416191910796,Pub
Doheny & Nesbitt,53.33805866507179,-6.25289382801867,Pub
Alfie Byrne's,53.334713957508896,-6.25759682999282,Pub
Hartigan's,53.3359300807092,-6.2568901163162804,Pub
Club Chonradh na Gaeilge,53.3372101521544,-6.26288171852085,Pub
Reillys,53.3382522634663,-6.253491846915639,Pub
The Dawson Lounge,53.339672603928,-6.2586680605421305,Pub
Peruke & Periwig,53.34008607089171,-6.25854214051159,Cocktail Bar
Houricans,53.3357032927089,-6.256644537472289,Pub
Madigan’s,53.3360092791641,-6.2570378066757595,Pub
Napper Tandy's,53.338319999999996,-6.2544694000000005,Pub
Chambers Pub,53.338303,-6.254472,Pub
Toners Pub,53.3378379865594,-6.25240970984067,Pub
Doheny & Nesbitt,53.33805866507179,-6.25289382801867,Pub
O'Donoghue's,53.3383143721128,-6.25416191910796,Pub
Matt The Thresher,53.3370498724294,-6.25177301994876,Pub
McGrattan's Cafe Bar,53.338605541618605,-6.25126489919405,Bar
Reillys,53.3382522634663,-6.253491846915639,Pub
Napper Tandy's,53.338319999999996,-6.2544694000000005,Pub
Chambers Pub,53.338303,-6.254472,Pub
The Schoolhouse Bar,53.3373418499578,-6.239585178618901,Pub
The 51 Bar,53.334732037645395,-6.24250752660753,Pub
Smyths of Haddington Road,53.3346991235061,-6.24327476824324,Pub
Oil Can Harry's,53.3385091619193,-6.24315388700681,Bar
Becky Morgans,53.339917705314505,-6.2420681966324105,Pub
The Bath,53.337374176474896,-6.23214776075289,Pub
Beggar's Bush,53.3364414273149,-6.237074738034529,Pub
The Schoolhouse Bar,53.3373418499578,-6.239585178618901,Pub
Slattery's,53.3371830668052,-6.23454879821078,Pub
The Gasworks Bar,53.33811,-6.237409599999999,Pub
The Old Spot,53.3373335739081,-6.23311445896802,Gastropub
The Bath,53.337374176474896,-6.23214776075289,Pub
The Vintage Inn,53.338809978954004,-6.22304786665645,Pub
Sober Lane,53.3385450282355,-6.22302265526063,Pub
Pilsworth & Ruddell Pub,53.342263438989605,-6.294372081756589,Pub
Kennys Pub,53.342431000000005,-6.294404,Pub
Harkins Bar,53.342431350984704,-6.28820318856673,Bar
Guinness Storehouse,53.3418895355902,-6.286733803765019,Brewery
Arthur's Bar,53.341807847128706,-6.2866634130477905,Pub
McCanns,53.3437759201666,-6.290357955489769,Pub
Arthur's Pub,53.34326,-6.281174,Pub
Bakers Bar,53.342797969802895,-6.27891677811753,Pub
Thomas House,53.3429989171488,-6.27672975385489,Pub
The Clock,53.3429274210994,-6.27919218201204,Pub
Beer Market,53.343245728556795,-6.273416811472959,Pub
FXB Bull and Castle,53.343404014333004,-6.27014523874239,Pub
The Fourth Corner,53.338924,-6.2724113,Pub
Darkey Kelly's,53.343936,-6.270008,Pub
Lord Edward Pub & Restaurant,53.343255502876794,-6.27010943226206,Pub
Fallon's Pub,53.33909534288011,-6.27302643348212,Pub
Thomas House,53.3429989171488,-6.27672975385489,Pub
The Liberty Belle,53.34158000000001,-6.2747746,Pub
P. Mac’s,53.3412421028261,-6.26426407358377,Pub
The Stag's Head,53.3438613603942,-6.26353760982456,Pub
The Long Hall,53.341786863588496,-6.26507838968486,Pub
Grogan's,53.34223766558271,-6.26252901070894,Pub
The Hairy Lemon,53.341176137776,-6.2639225230446,Pub
Bar with No Name / Bar No.3 / Kelly's / The Snail,53.3419357885594,-6.26428984736992,Pub
Hogan's Bar,53.34207529764811,-6.26464387871356,Pub
Peadar Kearney's,53.3442588459327,-6.2653215312447,Pub
Neary's,53.3407738497651,-6.26115984761172,Pub
The Swan Bar,53.339466794064705,-6.265664314804719,Pub
The Market Bar,53.342327837419205,-6.26399448694016,Pub
Sheehan's,53.34096987627,-6.26184061105378,Pub
The Oak,53.3441605959904,-6.26699266921133,Pub
Bar Rua,53.3409863095767,-6.2623536185298,Pub
Foggy Dew,53.344387,-6.2634788,Pub
The Dame Tavern,53.34378542051579,-6.263822810964331,Pub
Peter's Pub,53.3409556599935,-6.26335948190811,Pub
The International,53.343030343743294,-6.2619097098423095,Pub
The Globe,53.3433562028578,-6.2644571512633895,Pub
Bruxelles,53.34130514416061,-6.26092386232483,Pub
The Bankers,53.344015427118705,-6.26235467305675,Pub
The Mezz,53.34475142353661,-6.26479340280194,Pub
Mulligan And Haines,53.3441869770973,-6.26345408760474,Pub
Pygmalion,53.342115682887794,-6.2620488894414805,Bar
McDaid's,53.3413220330788,-6.26094405873114,Pub
Lord Edward Pub & Restaurant,53.343255502876794,-6.27010943226206,Pub
Sinnotts Bar,53.34018209955521,-6.261637922020889,Pub
The Trinity,53.344267060030205,-6.26358104203825,Pub
Mary's,53.342794632472106,-6.26035623604896,Pub
The Old Stand,53.3430897768979,-6.262041255315419,Sports Bar
Fade St. Social,53.34186371351729,-6.26380040160535,Gastropub
The Rag Trader,53.342796404539605,-6.26277619504148,Pub
Legends Bar,53.3439919338452,-6.268221251390081,Pub
Harry's on the Green,53.3405165606166,-6.2629983120067205,Pub
Crowbar,53.3450138357945,-6.26428617578918,Bar
The Mercantile Bar & Grill,53.344135069149296,-6.26407280464247,Pub
Brogan's,53.3441776182211,-6.26635064130053,Pub
Johnny Rush's,53.342834776733504,-6.262238917208049,Pub
Citi Bar & Venue,53.3442504355,-6.26364081088256,Pub
The George,53.3437204311845,-6.26447546525877,Gay Bar
Kehoe's,53.3411430737123,-6.2594365036981605,Pub
The Porterhouse Central,53.3431851778559,-6.25939449587182,Pub
The Duke,53.34191840720679,-6.2587877484422005,Pub
Grogan's,53.34223766558271,-6.26252901070894,Pub
Neary's,53.3407738497651,-6.26115984761172,Pub
O'Neills Bar & Restaurant,53.3438681996721,-6.26081237896706,Pub
Bruxelles,53.34130514416061,-6.26092386232483,Pub
Sheehan's,53.34096987627,-6.26184061105378,Pub
Bailey Bar Dublin,53.34196365125771,-6.25944479451374,Pub
McDaid's,53.3413220330788,-6.26094405873114,Pub
Jp Mooneys,53.342014,-6.2548094,Pub
The International,53.343030343743294,-6.2619097098423095,Pub
37 Dawson Street,53.340558071686495,-6.25862996524676,Bar
Mary's,53.342794632472106,-6.26035623604896,Pub
Bar Rua,53.3409863095767,-6.2623536185298,Pub
O'Donoghues,53.343418809830105,-6.259661504062031,Pub
Pygmalion,53.342115682887794,-6.2620488894414805,Bar
Sinnotts Bar,53.34018209955521,-6.261637922020889,Pub
Café en Seine,53.3406944940634,-6.258701805764849,Bar
Peruke & Periwig,53.34008607089171,-6.25854214051159,Cocktail Bar
The Old Stand,53.3430897768979,-6.262041255315419,Sports Bar
The Dawson Lounge,53.339672603928,-6.2586680605421305,Pub
Lincoln's Inn,53.3418375487465,-6.2524090800662195,Pub
Davy Byrnes,53.3419058997511,-6.2593591571387,Gastropub
The Rag Trader,53.342796404539605,-6.26277619504148,Pub
Johnny Rush's,53.342834776733504,-6.262238917208049,Pub
O'Neill's,53.344112396240206,-6.26090526580811,Pub
The Ginger Man,53.341859,-6.24958,Pub
Kennedy's,53.3420972741492,-6.250642632495559,Pub
Jp Mooneys,53.342014,-6.2548094,Pub
The Lombard,53.344223,-6.248787,Pub
Lincoln's Inn,53.3418375487465,-6.2524090800662195,Pub
McGrattan's Cafe Bar,53.338605541618605,-6.25126489919405,Bar
The Square Ball,53.3409647330353,-6.24489856752346,Sports Bar
London Irish Pub,53.342771592038005,-6.2515474456899,Pub
The Square Ball,53.3409647330353,-6.24489856752346,Sports Bar
Becky Morgans,53.339917705314505,-6.2420681966324105,Pub
Padraig Pearse,53.343143999999995,-6.244576,Pub
Scuttle's,53.342122518301295,-6.23521327972412,Pub
The Oarsman,53.341632999999995,-6.2277190000000004,Pub
John Clarke & Son's,53.3416711,-6.2275263,Pub
Nancy Hands,53.3481154412138,-6.29413452330178,Pub
Ryan's,53.3480455452277,-6.29378326797865,Bar
Dillons Parkgate Street,53.348209999999995,-6.294439,Pub
The Millennium Spirits,53.34796590960279,-6.290025546591541,Pub
Millenium,53.3479151852627,-6.29088616427601,Pub
McCanns,53.3437759201666,-6.290357955489769,Pub
Frank Ryan's Bar,53.3469780147741,-6.28006125229071,Pub
Dice Bar,53.347173878386606,-6.28032405506338,Pub
Pifko Bar,53.345964,-6.28031,Pub
The Brazen Head,53.3449817864796,-6.27633505566079,Irish Pub
O'Sheas Merchant,53.345051642008706,-6.27590416922407,Pub
Oscars Café Bar,53.348632177876794,-6.27850171297708,Pub
Christophe's,53.348227310092405,-6.27716046631513,Wine Bar
Hacienda,53.3481875308999,-6.2703793970163,Pub
Sin É,53.345980213176006,-6.2694865155363795,Pub
McNeills,53.347765898476,-6.268583760454219,Pub
Hughes' Pub,53.3467573295407,-6.27251423035161,Pub
The Brazen Head,53.3449817864796,-6.27633505566079,Irish Pub
Slattery's Bar,53.3482841606252,-6.268912553787231,Pub
Jack Nealon's,53.346463075764206,-6.26804807545425,Pub
Darkey Kelly's,53.343936,-6.270008,Pub
O'Sheas Merchant,53.345051642008706,-6.27590416922407,Pub
The Boars Head,53.3473154479398,-6.2683983586038305,Pub
Christophe's,53.348227310092405,-6.27716046631513,Wine Bar
The Temple Bar,53.3454766557522,-6.264191652531401,Pub
The Porterhouse,53.345158607657396,-6.26751661845208,Pub
The Quays,53.3455540670863,-6.26312100060066,Pub
The Old Storehouse,53.345198581191504,-6.262700567062219,Pub
The Church,53.3486064395506,-6.266716011667611,Pub
The Stag's Head,53.3438613603942,-6.26353760982456,Pub
Bad Bobs,53.345134963186204,-6.26592298482985,Pub
Bison Bar & BBQ,53.3454213829497,-6.26635003807339,Pub
Merchant's Arch Bar & Restaurant,53.346421965755205,-6.26305531042032,Pub
McNeills,53.347765898476,-6.268583760454219,Pub
The Auld Dubliner,53.345667545085405,-6.26194013111296,Pub
Quays Bar,53.3455573837325,-6.26310863478088,Pub
The Norseman,53.3454204925499,-6.26478792057142,Pub
Jack Nealon's,53.346463075764206,-6.26804807545425,Pub
Peadar Kearney's,53.3442588459327,-6.2653215312447,Pub
Oliver St John Gogarty,53.3456337071813,-6.261780672697999,Pub
Sin É,53.345980213176006,-6.2694865155363795,Pub
Ha'penny Bridge Inn,53.345988624564804,-6.26337126712572,Pub
Gin Palace,53.3477175920558,-6.2635176734830305,Pub
Foggy Dew,53.344387,-6.2634788,Pub
Slattery's Bar,53.3482841606252,-6.268912553787231,Pub
The Bank,53.3442488106509,-6.261521483054469,Pub
The Oak,53.3441605959904,-6.26699266921133,Pub
Vat House,53.3447175459181,-6.261930163617259,Pub
The Mezz,53.34475142353661,-6.26479340280194,Pub
Fitzsimons Bar,53.345513348058795,-6.26507647381473,Pub
The Dame Tavern,53.34378542051579,-6.263822810964331,Pub
The Grand Social,53.34689559144589,-6.26362346451544,Pub
Mulligan And Haines,53.3441869770973,-6.26345408760474,Pub
Buskers Bar,53.3458058893652,-6.26042508739824,Pub
The Bankers,53.344015427118705,-6.26235467305675,Pub
The Trinity,53.344267060030205,-6.26358104203825,Pub
The Globe,53.3433562028578,-6.2644571512633895,Pub
The Lotts,53.3473049428081,-6.263228467493151,Pub
Crowbar,53.3450138357945,-6.26428617578918,Bar
O'Connells,53.34734220922321,-6.260108336404881,Pub
The Workman's Club,53.345448966183994,-6.266420438941151,Rock Club
Legends Bar,53.3439919338452,-6.268221251390081,Pub
The Garage Bar,53.3451820252034,-6.266229697818071,Dive Bar
The Boars Head,53.3473154479398,-6.2683983586038305,Pub
The Czech Inn,53.344881881116706,-6.2679153764345195,Pub
The Mercantile Bar & Grill,53.344135069149296,-6.26407280464247,Pub
The Turk's Head,53.3448387909919,-6.26747636070746,Pub
O'Reilly's of Temple Bar,53.34549730251,-6.26431398898623,Pub
Brogan's,53.3441776182211,-6.26635064130053,Pub
T.P. Smith's,53.3475332454202,-6.26615523755074,Pub
O'Shea's,53.3453600427141,-6.2618269252158,Pub
The Snug,53.345183999999996,-6.265921,Pub
Lundy Foots,53.344857999999995,-6.2681309999999995,Pub
Citi Bar & Venue,53.3442504355,-6.26364081088256,Pub
Bad Ass Café,53.3453814517226,-6.26288736405363,Gastropub
Club M,53.3448799393624,-6.262297499243469,Pub
The George,53.3437204311845,-6.26447546525877,Gay Bar
The Palace Bar,53.34583493783771,-6.25958775071843,Pub
Mulligan's,53.34688092634401,-6.25560142279771,Pub
Cassidy's Bar,53.34634266938271,-6.25903511219553,Pub
Bowe's Lounge,53.3459275599665,-6.2577881356294105,Pub
Ruin Bar,53.3460620104911,-6.255206777487321,Pub
The Flowing Tide,53.348874350531595,-6.25759805186393,Pub
The Old Storehouse,53.345198581191504,-6.262700567062219,Pub
Lanigan's Pub,53.3477824404594,-6.257714687711281,Pub
Fitzgerald's,53.3466763621999,-6.2596817647972,Pub
The Auld Dubliner,53.345667545085405,-6.26194013111296,Pub
Oliver St John Gogarty,53.3456337071813,-6.261780672697999,Pub
J.W. Sweetman Craft Brewery,53.347156711287795,-6.25835975696222,Pub
The Bank,53.3442488106509,-6.261521483054469,Pub
Buskers Bar,53.3458058893652,-6.26042508739824,Pub
Merchant's Arch Bar & Restaurant,53.346421965755205,-6.26305531042032,Pub
O'Reilly's Bar,53.346997213371296,-6.25406804446125,Pub
Vat House,53.3447175459181,-6.261930163617259,Pub
Doyles Pub,53.345725892142895,-6.2574829316282,Pub
O'Connells,53.34734220922321,-6.260108336404881,Pub
Pipers Corner,53.349090046556704,-6.25783078423658,Pub
Bachelor Inn,53.347335014995295,-6.259916986946889,Pub
Grand Central Bar,53.348497372219,-6.25925102558867,Bar
The Oval,53.34838292943439,-6.26026718440437,Pub
River Bar,53.3469245813786,-6.25849740911559,Pub
The Workshop,53.347554628985606,-6.25478144289717,Pub
Friday's,53.34573652561271,-6.259963043284039,Pub
MacTurcaill's,53.3459479852491,-6.255161895290331,Pub
O'Shea's,53.3453600427141,-6.2618269252158,Pub
The Silver Penny (JD Wetherspoon),53.3490679784423,-6.25655695517708,Pub
Chaplin's Bar,53.3460892375195,-6.25695660599216,Bar
O'Neill's,53.344112396240206,-6.26090526580811,Pub
Club M,53.3448799393624,-6.262297499243469,Pub
O’Neills Victorian Pub and Townhouse,53.3448406003188,-6.252415550630519,Pub
Mulligan's,53.34688092634401,-6.25560142279771,Pub
Ruin Bar,53.3460620104911,-6.255206777487321,Pub
O'Reilly's Bar,53.346997213371296,-6.25406804446125,Pub
The Lombard,53.344223,-6.248787,Pub
The Windjammer,53.3454385105425,-6.248493042042121,Pub
Urban Brewing,53.349128058411,-6.24827635671541,Beer Bar
The Workshop,53.347554628985606,-6.25478144289717,Pub
Harbour Master Bar & Restaurant,53.34976625270289,-6.249087468685071,Bar
MacTurcaill's,53.3459479852491,-6.255161895290331,Pub
The Ferryman,53.346004,-6.2406783,Pub
MV Cill Airne,53.3470374065135,-6.238013449556121,Bar
Lagoona,53.3492111556165,-6.24332342575421,Bar
MV Cill Airne,53.3470374065135,-6.238013449556121,Bar
BrewDog Outpost Dublin,53.345113,-6.230644,Beer Bar
Vallence & McGrath,53.347094999999996,-6.232838,Pub
The Mayson,53.347136,-6.232531,Pub
BrewDog Outpost Dublin,53.345113,-6.230644,Beer Bar
The Mayson,53.347136,-6.232531,Pub
Vallence & McGrath,53.347094999999996,-6.232838,Pub
Dillons Parkgate Street,53.348209999999995,-6.294439,Pub
Kavanagh's,53.353381894163796,-6.2858748435974094,Pub
The Cobblestone,53.349799,-6.277846,Pub
Walsh's Pub,53.35049697211021,-6.281744828922171,Pub
The Glimmer Man Pub,53.3507740906061,-6.28211081462137,Pub
L. Mulligan Grocer,53.3509755422302,-6.28224392315904,Gastropub
Oscars Café Bar,53.348632177876794,-6.27850171297708,Pub
The Belfry,53.350244999999994,-6.282075,Pub
Delaney's,53.349707825702104,-6.27845354256617,Pub
BoCo,53.351353315108604,-6.269949207441719,Pub
The Black Sheep,53.349708363755795,-6.269065530881151,Pub
Bodkins Bar,53.3513935475774,-6.26983782742732,Pub
Kings Inn Pub,53.35198677391979,-6.26909446067395,Bar
Murray's Bar,53.35241933684689,-6.261255837061309,Pub
The Church,53.3486064395506,-6.266716011667611,Pub
The Black Sheep,53.349708363755795,-6.269065530881151,Pub
BoCo,53.351353315108604,-6.269949207441719,Pub
Madigan's,53.351453266287095,-6.26067128586052,Pub
Bodkins Bar,53.3513935475774,-6.26983782742732,Pub
Fibber Magees,53.352773,-6.260594,Pub
The Living Room,53.352484777108096,-6.2605161873594,Pub
Kings Inn Pub,53.35198677391979,-6.26909446067395,Bar
The Parnell Heritage Pub & Grill,53.352288339058,-6.262095769842241,Gastropub
Woolshed Baa & Grill,53.3501111667048,-6.267080001700339,Sports Bar
Shakespeare Pub,53.352986882886,-6.26057821411004,Pub
The Celt,53.35044157284761,-6.25507101446851,Pub
Murray's Bar,53.35241933684689,-6.261255837061309,Pub
Madigan's,53.351453266287095,-6.26067128586052,Pub
The Flowing Tide,53.348874350531595,-6.25759805186393,Pub
Madigans,53.350093883441495,-6.25928099163734,Pub
Fibber Magees,53.352773,-6.260594,Pub
The Living Room,53.352484777108096,-6.2605161873594,Pub
Pipers Corner,53.349090046556704,-6.25783078423658,Pub
The Confession Box,53.350357700901206,-6.25820210988567,Pub
Brannigan's,53.350467928707104,-6.259832913973661,Pub
Grand Central Bar,53.348497372219,-6.25925102558867,Bar
The Parnell Heritage Pub & Grill,53.352288339058,-6.262095769842241,Gastropub
Ned Keenans,53.3508807681878,-6.25446556568872,Pub
The Silver Penny (JD Wetherspoon),53.3490679784423,-6.25655695517708,Pub
Shakespeare Pub,53.352986882886,-6.26057821411004,Pub
The Brew Dock,53.35005943637321,-6.251013682214191,Pub
The Celt,53.35044157284761,-6.25507101446851,Pub
Graingers,53.351335904635,-6.250308215453741,Pub
Robert Reade's,53.350200465430696,-6.25253539019161,Pub
Urban Brewing,53.349128058411,-6.24827635671541,Beer Bar
Molloy's,53.3509791427596,-6.251352017000821,Pub
Harbour Master Bar & Restaurant,53.34976625270289,-6.249087468685071,Bar
Cleary's,53.352113921926794,-6.249761581420901,Pub
Lloyds,53.352726490872605,-6.249027547843389,Pub
Ned Keenans,53.3508807681878,-6.25446556568872,Pub
The Workshop Gastro Pub,53.3491574319509,-6.24080472668839,Pub
Nockters Pub,53.352929,-6.24700636666667,Pub
Lagoona,53.3492111556165,-6.24332342575421,Bar
Green Room Bar,53.3497545024895,-6.230292726657879,Pub
Green Room Bar,53.3497545024895,-6.230292726657879,Pub
Hanlons Bar and Restaurant,53.3573584182358,-6.288844546760809,Pub
Hyne's,53.354330000000004,-6.286654,Pub
London Irish Pub,53.3577179212093,-6.2919305160245,Pub
Kavanagh's,53.353381894163796,-6.2858748435974094,Pub
McGowan's,53.356693596521204,-6.27399322725886,Pub
The Back Page,53.3585552073271,-6.27317791385237,Bar
Berkeley,53.3570361941255,-6.268245058153219,Pub
Berkeley,53.356459252643496,-6.26789074253767,Pub
O'Brennan's,53.3536,-6.2698703,Pub
Bleecker St Cafe,53.3572402617074,-6.26405472233626,Pub
Tom Mayes,53.355836,-6.265206,Pub
The Temple Kavanaghs Pub,53.3574605849491,-6.26353869528167,Pub
Caulfield's Hotel,53.358459889900104,-6.26270591896641,Pub
Phil Ryan's (The Hogan Stand),53.358539454062395,-6.2555612616663305,Pub
Hill 16,53.354841936682796,-6.2573146820068395,Pub
Gills Corner House,53.358410185371504,-6.25446081161499,Pub
Bridge Tavern,53.35731275359329,-6.2491205699388805,Pub
Naomh Padraig CSC,53.354743799999994,-6.2495469,Pub
Brendan Behan,53.356936,-6.24926,Pub
Cusacks Spinnaker,53.35744725774779,-6.242795410114129,Pub
Gate Inn,53.3578899344269,-6.23823881149292,Pub
Gate Inn,53.3578899344269,-6.23823881149292,Pub
