Name,Latitude,Longitude,Classification
Herbert Park,53.32715616909083,-6.234802847745723,Tourism
St Patrick's Park,53.340110370617026,-6.271893684412651,Tourism
Iveagh Gardens,53.33568033551686,-6.261059453641287,Tourism
St Stephen's Green,53.338150925581544,-6.259160041809082,Tourism
Merrion Square Park,53.34013752866365,-6.250450753527079,Tourism
Garden of Remembrance,53.353771898207405,-6.263368436349015,Tourism
Mountjoy Square Park,53.356564304071256,-6.258026792435945,Tourism
Grafton Street,53.34144619794855,-6.260323878421817,Tourism
College Green,53.34439973421035,-6.260429513559224,Tourism
Grand Canal Dock,53.34260914378246,-6.23936201549253,Tourism
Grand Canal Square,53.34390119383642,-6.238461870495741,Tourism
Smithfield Square,53.34937201343414,-6.278967475541083,Tourism
Temple Bar Square,53.34552023801192,-6.26303458549087,Tourism
Parnell Square,53.353977443862455,-6.264508366584778,Tourism
Lansdowne Road DART Station,53.3339985206813,-6.22883380734766,Tourism
Grand Canal Dock Railway Station,53.33953155880477,-6.237296700155354,Tourism
Dublin Pearse Railway Station,53.34329860826153,-6.2482467361181975,Tourism
Dublin Heuston Railway Station,53.34651102669607,-6.292863152881727,Tourism
Tara Street Railway Station,53.34679507191022,-6.253919005393982,Tourism
Dublin Connolly Railway Station,53.351913261768225,-6.248971195838131,Tourism
Aviva Stadium,53.33475615864168,-6.228088097073558,Tourism
Gaiety Theatre,53.340440730565604,-6.2616790055464815,Tourism
Irish Film Institute (IFI),53.344666917714605,-6.2652945948390535,Tourism
Olympia Theatre,53.344650883023796,-6.266013273990457,Tourism
Bord Gáis Energy Theatre,53.344089880104,-6.239203766138308,Tourism
Light House Cinema,53.348690680649106,-6.278976310584666,Tourism
Savoy Cinema,53.351256869038345,-6.260653947937496,Tourism
Teeling Whiskey Distillery,53.33777268667219,-6.277161980781218,Tourism
Jameson Distillery Bow St.,53.34812478051833,-6.2770742783473175,Tourism
Lansdowne Road DART Station,53.3339985206813,-6.22883380734766,Tourism
Grand Canal Dock Railway Station,53.33953155880477,-6.237296700155354,Tourism
Dublin Pearse Railway Station,53.34329860826153,-6.2482467361181975,Tourism
Dublin Heuston Railway Station,53.34651102669607,-6.292863152881727,Tourism
Tara Street Railway Station,53.34679507191022,-6.253919005393982,Tourism
Dublin Connolly Railway Station,53.351913261768225,-6.248971195838131,Tourism
General Post Office (GPO),53.34950703479683,-6.2602769005324586,Tourism
ODEON Point Village,53.348489,-6.227729,Tourism
Cineworld,53.350243920703036,-6.26769608258715,Tourism
The Spire of Dublin,53.349805219053046,-6.260259747505188,Tourism
Trinity College Old Library & The Book of Kells Exhibition,53.34369228474104,-6.256907495689872,Tourism
National Library of Ireland,53.3409670021457,-6.254646777860326,Tourism
Irish Film Institute (IFI),53.344666917714605,-6.2652945948390535,Tourism
Light House Cinema,53.348690680649106,-6.278976310584666,Tourism
Dicey's Garden,53.33585805331403,-6.263961320677308,Tourism
The Dubhlinn Gardens,53.342532468101396,-6.2667641043663025,Tourism
The Famine Memorial,53.34805870531647,-6.250107868518107,Tourism
The Foundry,53.34006310147415,-6.2360648810863495,Tourism
Marks & Spencer,53.34221958,-6.25949353,Tourism
Brown Thomas,53.342319858289,-6.259724160306432,Tourism
Marks & Spencer,53.34889494,-6.26473977,Tourism
Arnotts,53.34891322145636,-6.263089915155983,Tourism
Royal Dublin Society (RDS),53.32757996473204,-6.22906836192335,Tourism
The Convention Centre Dublin,53.347623337148505,-6.239657305969852,Tourism
Penneys,53.348886,-6.2665344,Tourism
Penneys,53.348796523209785,-6.260860338861676,Tourism
St Patrick's Cathedral,53.339595570620574,-6.271736936333108,Tourism
Christ Church Cathedral,53.343110420999786,-6.271156571901248,Tourism
Busáras,53.34956666295189,-6.251895679007995,Tourism
Guinness Storehouse,53.3418895355902,-6.286733803765022,Tourism
Guinness Academy,53.34194170129774,-6.286681947553233,Tourism
J.W. Sweetman Craft Brewery,53.34715671128785,-6.258359756962223,Tourism
Hodges Figgis,53.34220235099416,-6.257916902841114,Tourism
Eason,53.34850756772799,-6.260195529372492,Tourism
Carla's House,53.31901190000001,-6.2804223,Accommodation
"Modern, homely, recently-renovated 2BR Dublin 6",53.321031100000006,-6.2732633,Accommodation
Luxuries Ensuite Double Bedroom in a family home,53.31563420000001,-6.2820791,Accommodation
D-6 Studios,53.3186578,-6.2699509,Accommodation
Marilyn Mansion,53.315194999999996,-6.275928999999999,Accommodation
Griffith Halls of Residence,53.330357400000004,-6.279033900000001,Accommodation
Travelodge Dublin City Centre Rathmines,53.32508850000001,-6.2650023999999975,Accommodation
Uppercross House Hotel,53.32085299999999,-6.2651901,Accommodation
Portobello Hotel,53.3303119,-6.2638565999999996,Accommodation
Lasowe Love,53.319585499999995,-6.2563879,Accommodation
Guesthouse Sallymount Avenue,53.3252236,-6.2512344,Accommodation
Abbeyleigh House,53.329905000000004,-6.250930999999999,Accommodation
Hampton Hotel,53.32581629999999,-6.2428912999999975,Accommodation
Clayton Hotel Burlington Road,53.33067,-6.2487565000000025,Accommodation
Donnybrook Hall,53.321531900000004,-6.239011599999999,Accommodation
Oaklodge Bed and Breakfast,53.3271807,-6.240282,Accommodation
Morehampton Townhouse Dublin,53.32525099999999,-6.2405110000000015,Accommodation
Herbert Park Hotel,53.328230500000004,-6.2322773,Accommodation
freudenhaus,53.328458999999995,-6.2857182000000025,Accommodation
Harrington House Hostel,53.3323019,-6.267830600000001,Accommodation
Portobello B&B,53.331998,-6.2732360000000025,Accommodation
Harcourt Hotel,53.33442540000001,-6.2627429,Accommodation
Conrad Dublin,53.33496299999999,-6.257677000000001,Accommodation
Harrington Hall,53.33504419999999,-6.2630294,Accommodation
Jackson Court Hotel,53.3353775,-6.2635989,Accommodation
The Leeson Lodge,53.33171369999999,-6.252968499999999,Accommodation
Kilronan House,53.33291360000001,-6.2595812,Accommodation
Waterloo Lodge Townhouse,53.3311858,-6.244577800000001,Accommodation
Mespil Hotel,53.333284,-6.246879,Accommodation
Leeson Inn Downtown,53.3341966,-6.2552815000000015,Accommodation
Ballsbridge Apartments,53.332197,-6.2466661,Accommodation
Number 31,53.33340399999999,-6.253621,Accommodation
Waterloo House,53.3315743,-6.243577600000001,Accommodation
Dylan Hotel Dublin,53.33380920000001,-6.242007900000001,Accommodation
Lansdowne Hotel,53.3324806,-6.241158,Accommodation
Pembroke Townhouse Dublin,53.332506,-6.237973399999998,Accommodation
Baggot Court Townhouse,53.335379,-6.247208000000001,Accommodation
Latchfords Townhouse of Baggot Street,53.33567530000001,-6.247722800000001,Accommodation
Clayton Hotel Ballsbridge,53.3259914,-6.225363599999999,Accommodation
Ballsbridge Hotel,53.332225699999995,-6.234391099999999,Accommodation
InterContinental Dublin,53.3266078,-6.226078999999999,Accommodation
Roxford Lodge Hotel,53.3354071,-6.2371360000000005,Accommodation
PREMIER SUITES PLUS Dublin Ballsbridge,53.32775880000001,-6.225685299999999,Accommodation
Andorra Bed And Breakfast,53.3257002,-6.2230643,Accommodation
Sandymount Hotel,53.33358079999999,-6.2244031999999985,Accommodation
Ariel House,53.33411940000001,-6.231097200000002,Accommodation
Butlers Townhouse,53.33404820000001,-6.232274400000001,Accommodation
Guinness Cottage,53.33695489999999,-6.2969545999999985,Accommodation
Destiny Student - New Mill (Campus Accommodation),53.33718519999999,-6.277428199999999,Accommodation
Camden Court Hotel,53.3352616,-6.2652196,Accommodation
Times Hostels - Camden Place,53.335427,-6.264625999999999,Accommodation
The Camden Hotel,53.33594000000001,-6.265624,Accommodation
Russell Court Hotel,53.335956,-6.263533199999999,Accommodation
Albany House,53.33621509999999,-6.2629658999999975,Accommodation
The Green Hotel,53.337375,-6.2632813999999986,Accommodation
Avalon House,53.339591500000004,-6.2664129000000015,Accommodation
Kevin St Self Catering,53.337632000000006,-6.267606099999999,Accommodation
"The Shelbourne, Autograph Collection",53.3389725,-6.2560138000000025,Accommodation
The Fitzwilliam Hotel Dublin,53.3393583,-6.2615028,Accommodation
Cliff Townhouse,53.339228799999994,-6.257241599999999,Accommodation
The Merrion Hotel Dublin,53.33856779999999,-6.252861399999999,Accommodation
Fitzwilliam Townhouse,53.33653689999999,-6.2489916,Accommodation
Schoolhouse Hotel,53.3374152,-6.2394909000000025,Accommodation
Grand Canal District Apartments,53.3364755,-6.2381075999999975,Accommodation
Apartments by Germe,53.33819519999999,-6.2457009,Accommodation
Gorgeous City Centre Penthouse,53.33901039999999,-6.2430036000000015,Accommodation
Grand Canal Hotel,53.3381632,-6.237890299999999,Accommodation
"Radisson Blu Royal Hotel, Dublin",53.34085289999999,-6.268324599999999,Accommodation
Destiny Student – Binary Hub (Campus Accommodation),53.3450315,-6.2832975,Accommodation
Jurys Inn Christchurch Dublin,53.34283199999999,-6.2705198,Accommodation
The Four Courts Hostel,53.344986,-6.2738948999999975,Accommodation
Christchurch Guinness Ground Floor,53.3426795,-6.2755718000000025,Accommodation
"Staycity Aparthotels - Saint Augustine Street, Dublin 8",53.34432619999999,-6.277240699999999,Accommodation
The Viking Lodge Hotel,53.3415075,-6.2746024999999985,Accommodation
"Staycity Aparthotels - Christchurch, Dublin",53.34309520000001,-6.273901200000001,Accommodation
The Central Hotel,53.343094799999996,-6.2639087999999985,Accommodation
The Mercantile Hotel,53.3440689,-6.263892999999999,Accommodation
Drury Court Hotel,53.3412378,-6.264441400000001,Accommodation
Brooks Hotel,53.341559,-6.263608000000001,Accommodation
Paramount Hotel,53.3447118,-6.268025499999998,Accommodation
Kinlay House Dublin,53.343725899999995,-6.269897999999999,Accommodation
Kellys Hotel,53.3419909,-6.2646672999999975,Accommodation
Buswells Hotel,53.34081380000001,-6.2557335,Accommodation
Apache Hostel,53.34441169999999,-6.2647051,Accommodation
Harding Hotel,53.34379999999999,-6.2699,Accommodation
Handels Hotel by thekeycollections,53.34413780000001,-6.269632099999999,Accommodation
The Dawson Hotel,53.34039300000001,-6.2588370000000015,Accommodation
St. Stephens Green D2,53.341265899999996,-6.2642485999999975,Accommodation
The Kildare Street Hotel by thekeycollections,53.3420277,-6.2547945,Accommodation
Blooms Hotel,53.34477499999999,-6.2619479999999985,Accommodation
Oliver St. John Gogarty's Hostel,53.3453782,-6.261729700000001,Accommodation
River House Hotel,53.34465609999999,-6.264702700000001,Accommodation
Trinity Townhouse Hotel,53.34195820000001,-6.2564555,Accommodation
The Davenport Hotel,53.34166670000001,-6.250027499999999,Accommodation
Trinity City Hotel,53.34522510000001,-6.2540996999999985,Accommodation
O'Neills Victorian Pub & Townhouse,53.344882999999996,-6.2524739999999985,Accommodation
The Mont Hotel,53.341507799999995,-6.2507059000000025,Accommodation
Maldron Hotel Pearse Street,53.343191000000004,-6.2433989999999975,Accommodation
The Marker Hotel Dublin,53.34452380000001,-6.2387962,Accommodation
Clayton Hotel Cardiff Lane,53.345203500000004,-6.2407672,Accommodation
Penthouse with panoramic water views,53.343962899999994,-6.233634500000001,Accommodation
Sea View D4,53.33474620000001,-6.214222000000001,Accommodation
Ashling Hotel Dublin,53.3480306,-6.2910944,Accommodation
Phoenix Park Hotel,53.34823299999999,-6.2947583,Accommodation
ParkGate,53.34808260000001,-6.291459100000003,Accommodation
Generator Dublin,53.34833179999999,-6.277839,Accommodation
The Clarence Hotel Dublin,53.345261300000004,-6.266782600000001,Accommodation
Serviced Apartments by Premier City,53.3488517,-6.2790655000000015,Accommodation
McGettigan's Townhouse,53.347279500000006,-6.2802738000000025,Accommodation
Temple Bar Old Town,53.3446485,-6.2682996,Accommodation
Temple Bar Inn,53.34571949999999,-6.2597755999999976,Accommodation
Eliza Lodge Temple Bar by theKeycollection.ie,53.345643700000004,-6.2647453,Accommodation
Barnacles Hostel Dublin,53.34514799999999,-6.264174099999999,Accommodation
Maldron Hotel Smithfield,53.34943320000001,-6.2783210999999985,Accommodation
Inn on the Liffey Guesthouse,53.3458929,-6.2702290000000005,Accommodation
Birch at Temple Lane South Apartments,53.34465609999999,-6.264702700000001,Accommodation
The Hidden Gem Apartments,53.34442239999999,-6.2643523000000005,Accommodation
Citi Downtown Residence,53.34733929999999,-6.269072999999999,Accommodation
The Bridge House Guest house,53.3450254,-6.267721499999999,Accommodation
Dublin Citi Hotel,53.34433979999999,-6.2634723,Accommodation
The Morgan Hotel,53.345795700000004,-6.2612324999999975,Accommodation
The Westin Dublin,53.34562099999999,-6.2588794000000005,Accommodation
Abigails Hostel,53.346362,-6.261096999999999,Accommodation
"The Morrison, a DoubleTree by Hilton Hotel",53.346695200000006,-6.265965499999999,Accommodation
Times Hostels - College Street,53.345716,-6.257634999999999,Accommodation
Temple House Student Standard,53.34518539999999,-6.2650178000000025,Accommodation
Temple Bar District Apartments,53.34547489999999,-6.2641889000000015,Accommodation
Abbey Court Hostel,53.3474366,-6.260345900000001,Accommodation
Ashfield Hostel home,53.346212,-6.2575330000000005,Accommodation
Wynn's Hotel Dublin,53.348342,-6.258687999999998,Accommodation
Clifton Court Hotel,53.34793689999999,-6.2579014000000015,Accommodation
Arlington Hotel,53.347305299999995,-6.2606861999999985,Accommodation
Isaacs Hostel,53.3500476,-6.253217899999999,Accommodation
Paddy's Palace,53.3496828,-6.253397000000001,Accommodation
Backpackers Citi Hostel,53.35021499999999,-6.2537847,Accommodation
The Townhouse Hotel,53.3502556,-6.254401400000001,Accommodation
The Ferryman,53.34604870000001,-6.2406530999999985,Accommodation
Hilton Garden Inn Dublin Custom House,53.348161399999995,-6.246735399999999,Accommodation
Spencer Hotel Dublin City,53.3480387,-6.243300899999999,Accommodation
The Gibson Hotel,53.3485796,-6.2287761,Accommodation
Hilton Dublin Kilmainham,53.34231550000001,-6.308244799999999,Accommodation
Double Bed and Bathroom,53.34980529999999,-6.2785065000000015,Accommodation
Heuston Aparthotel Ellis Quay,53.346790399999996,-6.281905,Accommodation
Liffey Aparthotel Ellis Quay,53.3467652,-6.2809359,Accommodation
MariApartm,53.344694499999996,-6.2682151999999975,Accommodation
Central home base,53.3482759,-6.269172900000001,Accommodation
Hotel Riu Plaza The Gresham Dublin,53.35153649999999,-6.2606459,Accommodation
Jurys Inn Parnell Street Dublin,53.35158420000001,-6.2630108999999985,Accommodation
Maldron Hotel Parnell Square,53.354248999999996,-6.266636,Accommodation
Dublin Central Inn,53.3500563,-6.2567363999999985,Accommodation
Spire Hostel Dublin,53.3498649,-6.2582631,Accommodation
Maple Hotel Dublin,53.35113519999999,-6.2543435,Accommodation
Abrahams Hostel,53.351595999999994,-6.2548080000000015,Accommodation
Academy Plaza Hotel,53.352524300000006,-6.259991400000001,Accommodation
My Place Dublin Hotel,53.3519407,-6.2549619000000005,Accommodation
The Gate Hotel,53.35277259999999,-6.2606074000000005,Accommodation
O'Sheas of Talbot Street,53.350890299999996,-6.254265699999999,Accommodation
The Holyhead,53.3508484,-6.2546773,Accommodation
Cassidys Hotel,53.3531054,-6.261574299999999,Accommodation
Beresford Hotel IFSC,53.35008649999999,-6.252750899999999,Accommodation
Hotel St. George by thekeycollections,53.35378420000001,-6.2623647,Accommodation
North Star Hotel,53.35177660000001,-6.2500265,Accommodation
Jacobs Inn,53.35076479999999,-6.2515781000000015,Accommodation
The Ripley Court Hotel,53.3513287,-6.251590800000002,Accommodation
Amberley House,53.351339,-6.2550830999999985,Accommodation
Backpackers D1Hostel,53.3514549,-6.2546532999999975,Accommodation
Sheriff Apartment,53.35069009999999,-6.244412800000001,Accommodation
Glencourt Apartments,53.356733999999996,-6.2910280000000025,Accommodation
Green St Self Catering,53.350407,-6.2708179999999984,Accommodation
Vital Apartment,53.3494319,-6.2689888,Accommodation
Dublin International Youth Hostel (An Oige),53.35596460000001,-6.2683982999999985,Accommodation
Castle Hotel,53.35495599999999,-6.2637733,Accommodation
Charleville Lodge Hotel,53.3591528,-6.279833999999999,Accommodation
Abbey Hotel,53.3480003,-6.262587299999999,Accommodation
Barry's Hotel,53.35532930000001,-6.262855300000003,Accommodation
The Belvedere Hotel,53.3550328,-6.2624178,Accommodation
Dergvale Hotel,53.356114100000006,-6.260715500000001,Accommodation
The Dublin Central Hostel,53.35638849999999,-6.265865799999999,Accommodation
Rock Hotel Dublin,53.357144999999996,-6.259747700000001,Accommodation
Temple House North Great Apartments,53.35426139999999,-6.2601220999999985,Accommodation
Adelphi Guesthouse,53.3505697,-6.2540022,Accommodation
Celtic Lodge Guest House,53.3504921,-6.255235899999999,Accommodation
Anchor House Dublin,53.35017850000001,-6.254253699999999,Accommodation
4* Apartments Dublin 1,53.35447170000001,-6.245974999999999,Accommodation
Hotel The Glen Guesthouse Dublin,53.3516564,-6.254763000000001,Accommodation
Super Central Dublin Apartments,53.35830559999999,-6.244284200000001,Accommodation
B&B St Annes Dublin,53.359225699999996,-6.269965600000001,Accommodation
Loyola Bed and Breakfast,53.3599802,-6.282159,Accommodation
Private Double Room in Dublin City Center,53.35617420000001,-6.266285799999999,Accommodation
Croke Park Aparthotel,53.357783999999995,-6.256594799999999,Accommodation
Belvidere Road Apartments,53.36002489999999,-6.259514799999999,Accommodation
Belvedere BnB,53.35861970000001,-6.258490599999999,Accommodation
KGT House,53.3568027,-6.2642525000000004,Accommodation
Double bedroom studio,53.357927000000004,-6.2629779,Accommodation
Parkway Guesthouse,53.356137,-6.260641700000001,Accommodation
Eccles Townhouse,53.35750299999999,-6.2639559999999985,Accommodation
The Middle Gardiner Self Catering,53.3549506,-6.2574280999999985,Accommodation
Marlborough house,53.3498781,-6.257127699999999,Accommodation
Avondale Guesthouse,53.35092590000001,-6.2548264000000025,Accommodation
Dublin City Hidden Gem,53.3595475,-6.242493899999999,Accommodation
Abbott Lodge,53.351880799999996,-6.2549038,Accommodation
Hazelbrook House,53.3517829,-6.2548255999999975,Accommodation
"Pia House ,",53.360858500000006,-6.239262,Accommodation
Arena School of English,53.33476943189974,-6.2632287431554445,University
Plantronics WWSM,53.33521071105719,-6.228241329510372,University
Presentation Room,53.338474,-6.266765,University
Tutorial Room 8,53.338888,-6.26259,University
Newman House,53.336785,-6.260219,University
NCAD,53.343817770117894,-6.277887360243503,University
MEC,53.34181946112113,-6.275675462033187,University
DBS Castle House,53.34335899282259,-6.264466220889082,University
Trinity College,53.3441988069838,-6.257963465659787,University
Ussher Library,53.34300498473638,-6.255906406950686,University
Berkeley Library,53.34361739975458,-6.256230288851451,University
Trinity College | Nassau Street Gate,53.342598238309705,-6.256540545987332,University
Centre for Language and Communication Studies,53.341853597001716,-6.253094060281737,University
"Oifig na Gaeilge, Coláiste na Tríonóide",53.34400458216961,-6.259228894553832,University
Maths Society Common Room,53.34474300000001,-6.252644,University
National College of Ireland (NCIRL),53.34878397063717,-6.2432121018667335,University
Dublin Insitute of Technology,53.35228425223539,-6.259209746196754,University
Ig International Management Limited,53.33209889999999,-6.2304951,Company
Belfius Ireland,53.349242200000006,-6.2462857000000005,Company
Northern Trust Management Services (Ireland) Limited,53.3458585,-6.2507611,Company
Gam Fund Management Limited,53.3458585,-6.2507611,Company
Airbus Financial Services,53.3496284,-6.246303299999999,Company
Accenture Global Solutions Limited,53.3441421,-6.2387628,Company
Aon Insurance Managers (Dublin) Limited,53.352392200000004,-6.2542065000000004,Company
Anp International Finance Limited,53.351357400000005,-6.2482047,Company
Ulster Bank Corporate Banking & Financial Markets,53.34744310000001,-6.2539365999999985,Company
Sogeti Ireland,53.352392200000004,-6.2542065000000004,Company
JP Morgan Bank (Ireland) PLC,53.344805799999996,-6.2315043,Company
HSBC Securities Services (Ireland) Limited,53.343657799999995,-6.239462899999999,Company
RBC Investor and Treasury Services Limited (Ireland),53.346815600000006,-6.253539599999999,Company
BNP Paribas CIB (Ireland),53.34961819999999,-6.2466773999999985,Company
Intesa Sanpaolo Bank Ireland,53.34994829999999,-6.2473557999999985,Company
Intesa Sanpaolo Bank Ireland,53.34994829999999,-6.2473557999999985,Company
Investec Ireland Limited,53.332904500000005,-6.262198600000001,Company
Pfizer Dublin Treasury Centre,53.3413042,-6.230584899999998,Company
Citi (Ireland HQ),53.34802579999999,-6.2453677,Company
Aig Asset Management (Ireland) Limited,53.3478321,-6.241581800000001,Company
Mitsubishi Ufj Lease & Finance (Ireland) Limited,53.33781099999999,-6.2465532999999995,Company
Intl Investment & Underwriting Limited,53.34132469999999,-6.238931699999998,Company
Willis Management (Dublin) Limited,53.340074800000004,-6.2367637999999985,Company
Mediolanum International Funds Limited,53.33207849999999,-6.231314999999999,Company
Verizon Business,53.3441209,-6.2442125,Company
Brown Brothers Harriman Fund Admin Services (Ireland) Limited,53.3365234,-6.244983299999999,Company
Marsh Management Services (Dublin) Limited,53.33193829999999,-6.2560367,Company
Bny Mellon Asset Services (Ireland) Limited,53.34862929999999,-6.2415452999999985,Company
International Fund Services (Ireland) Limited,53.345091000000004,-6.2328532,Company
FFH Management Services Limited,53.33193829999999,-6.2560367,Company
Jazz Pharmaceuticals PLC.,53.3330123,-6.2472436999999985,Company
Webzen Inc,53.3464953,-6.278598400000001,Company
Transaction Network Services (Tns) Limited,53.33241829999999,-6.2318799999999985,Company
Agfa Limited,53.3410895,-6.256952500000001,Company
Electrolux Group Ireland Limited,53.333574899999995,-6.2519953,Company
Allergan Services International Limited,53.3350076,-6.2562639,Company
IBM Intl Treasury Services Company,53.332832999999994,-6.2408842999999985,Company
Sgam ( Ireland) Limited,53.3483397,-6.2505321999999985,Company
Milliman,53.338733999999995,-6.2400400000000005,Company
American College Dublin Limited,53.3381471,-6.248180899999999,Company
Liberty Special Markets (Ireland),53.33027779999999,-6.2336111,Company
Allied Risk Management Limited,53.3483908,-6.2504650999999996,Company
Seb Life International Limited,53.34551999999999,-6.235659,Company
Seb Life International Limited,53.34565929999999,-6.2356991,Company
Aig Europe Limited,53.3478321,-6.241581800000001,Company
Link IFS Limited,53.34390459999999,-6.2405643,Company
Metzler Ireland Limited,53.3490816,-6.24094,Company
Amundi Asset Management (Ireland),53.346815600000006,-6.253539599999999,Company
Susquehanna Ireland Limited,53.349712,-6.247880899999998,Company
Critical Path,53.3379517,-6.2421517,Company
Bank Of Montreal Ireland PLC,53.350236800000005,-6.2497903,Company
SMBC Aviation Capital,53.3483908,-6.2504650999999996,Company
AXA XL,53.3398762,-6.2596886,Company
TD Securities (Ireland),53.3409208,-6.257272,Company
Canada Life Assurance Europe Limited,53.3493471,-6.2569656999999985,Company
Canada Life Assurance Europe Limited,53.34897119999999,-6.255185,Company
Euroben Life & Pension Limited,53.33283910000001,-6.2638815,Company
Belfius Bank SA/NV,53.349242200000006,-6.2462857000000005,Company
Amb Capital (Ireland) Limited,53.33259939999999,-6.2527665,Company
Amb Capital (Ireland) Limited,53.3325955,-6.2527021,Company
Porsche International Financing Dac,53.349341700000004,-6.247228199999999,Company
Chubb Insurance Company Of Europe S.a.,53.34961819999999,-6.2466773999999985,Company
Jmh Finance Corporation,53.3489564,-6.247024300000001,Company
Investment Technology Group Limited,53.34952430000001,-6.2436919,Company
Ing European Financial Services PLC,53.337518599999996,-6.255827200000001,Company
Icbc Financial Leasing Co. Limited (Dublin),53.33873579999999,-6.238596599999999,Company
Sei Global Fund Services Limited,53.3344321,-6.2621242,Company
Smt Fund Services (Ireland) Limited,53.33276899999999,-6.264202999999998,Company
National Westminster Reinsurance Limited,53.3483908,-6.2504650999999996,Company
W&W Advisory Dublin Limited,53.335876299999995,-6.2572239000000005,Company
Kdb Ireland Limited,53.3366524,-6.2615393,Company
Fiba Ifsc,53.34557179999999,-6.2332982,Company
Webroot International Limited,53.3471706,-6.252800700000001,Company
Accenture Global Solutions Limited,53.3392257,-6.2387811,Company
Bbva Ireland PLC,53.35020649999999,-6.246353599999999,Company
Credit Suisse International,53.348416500000006,-6.238060399999998,Company
Credit Suisse International,53.348597999999996,-6.2383568,Company
Murex Advanced Technologies,53.333172399999995,-6.2316482,Company
Macquarie Aviation Capital Finance Limited,53.3321458,-6.246678299999999,Company
HSBC Bank PLC (Ireland),53.343657799999995,-6.239462899999999,Company
HSBC Bank PLC (Ireland),53.34348809999999,-6.239093700000001,Company
Epsilon Ireland,53.3364524,-6.2520545,Company
Zurich Insurance PLC,53.34957619999999,-6.250260400000001,Company
Invesco Global Asset Management DAC,53.34498000000001,-6.234991099999999,Company
Intrepid Aviation,53.337501100000004,-6.255251400000001,Company
China Construction Bank International Leasing,53.33705260000001,-6.261068099999999,Company
Wells Fargo Bank International,53.350236800000005,-6.2497903,Company
Guggenheim Partners Europe Limited,53.3439743,-6.2346829,Company
Lantern Structured Asset Management,53.34256260000001,-6.256766700000001,Company
Lantern Structured Asset Management,53.3415235,-6.2570881,Company
Landesk,53.333683400000005,-6.2631431,Company
Chc Leasing (Ireland) Limited,53.3385385,-6.2687070999999985,Company
Analytic Partners,53.3415196,-6.269255999999999,Company
Aris Global Software Pvt Limited,53.3282145,-6.2317708,Company
Spencer Stuart International Ireland,53.3455701,-6.242335799999998,Company
Telefonica Europe People Services Limited,53.34479739999999,-6.243957599999999,Company
Amazon Data Services Ireland Limited,53.3323927,-6.2459666,Company
Amazon Data Services Ireland Limited,53.33060079999999,-6.2473741999999985,Company
Level 3 Communications,53.340780099999996,-6.2644791999999985,Company
Cuna Mutual Group Services (Ireland) Limited,53.344267200000004,-6.2673961999999985,Company
Infineon Technologies Ireland Limited,53.33721260000001,-6.2740233,Company
Ge Financial Markets,53.34135389999999,-6.267764700000001,Company
State Street International (Ireland) Limited,53.345091000000004,-6.2328532,Company
Merian,53.33293370000001,-6.2636666,Company
National Bank Of Canada,53.3282145,-6.2317708,Company
Udemy Ireland Limited,53.34557179999999,-6.2332982,Company
Wilmington Trust Sp Services (Dublin) Limited,53.34974829999999,-6.247299099999998,Company
Fideuram Asset Management,53.3458586,-6.2507611,Company
DLL Ireland Company,53.346815600000006,-6.253539599999999,Company
Arch Reinsurance Europe,53.331414,-6.2316502,Company
Airbus Helicopters International Services Limited,53.349242200000006,-6.2462857000000005,Company
AXA Life Europe dac,53.3482826,-6.267524499999999,Company
Zendesk,53.330454700000004,-6.2589079000000005,Company
Powerhealth Solutions,53.3412172,-6.2841209000000005,Company
Nitro Pdf,53.3321792,-6.2457595999999995,Company
Nitro Pdf,53.3321792,-6.2457595999999995,Company
GTLK Europe,53.337501100000004,-6.255251400000001,Company
Mindtree Limited,53.348416500000006,-6.238060399999998,Company
Nightowl Discovery,53.33283910000001,-6.2638815,Company
MUFG Alternative Fund Services (Ireland) Ltd,53.346815600000006,-6.253539599999999,Company
Informatica Ireland Limited,53.345698899999995,-6.2462684999999984,Company
Bentley Systems International Limited,53.3336252,-6.261345400000001,Company
Amedeo UK,53.331491899999996,-6.231049700000001,Company
China Merchants Bank Financial Leasing (Ireland),53.33873579999999,-6.238596599999999,Company
Datac Control International Limited,53.341069,-6.267545399999999,Company
Pfizer Global Financial Shared Services (Europe),53.3413042,-6.230584899999998,Company
Societe Generale Securities Services Fund Accounting/Euro Vl,53.3489564,-6.247024300000001,Company
Ci Consultancy Limited T/a Wolter Kluwer Financial Services Ireland,53.33782909999999,-6.241714900000001,Company
SS&C,53.34957619999999,-6.250260400000001,Company
Gerson Lehrman Group,53.333093500000004,-6.2435766,Company
Nuance Communications Ireland Limited,53.32888149999999,-6.229229900000001,Company
FireEye (Dublin),53.3469618,-6.2500468,Company
Willis Aviation Finance Limited,53.332691000000004,-6.247334700000001,Company
Marin Software,53.338131499999996,-6.2411715,Company
CACI Life Limited & CACI Non-Life Limited,53.34017559999999,-6.2643461999999985,Company
Wedo Technologies,53.33283910000001,-6.2638815,Company
Asset Control Ireland Limited,53.3480512,-6.242688200000001,Company
Alkermes PLC,53.3330123,-6.2472436999999985,Company
Accipiter Holdings Limited,53.3461985,-6.242467299999999,Company
Accipiter Holdings Limited,53.3461985,-6.242467299999999,Company
Kyne Ireland,53.338269,-6.253212,Company
Search Optics Ireland,53.33721260000001,-6.2740233,Company
Espirito Santo Investment PLC,53.3501172,-6.2578169,Company
Pinterest (Ireland),53.3477924,-6.2337608,Company
Pinterest (Ireland),53.34760060000001,-6.2333678,Company
Microchip - Dublin 7,53.3466549,-6.2693379999999985,Company
Procuro Euro Limited,53.3238686,-6.2612815999999984,Company
BioMarin Ireland Limited,53.335876299999995,-6.2572239000000005,Company
Cloudbeds Dublin,53.343012300000005,-6.2801478,Company
Venterra Realty Ireland,53.334092000000005,-6.2514804,Company
Lonely Planet Global Limited,53.3421514,-6.2826758,Company
Paulson & Company Ireland,53.34980529999999,-6.2603097000000005,Company
Emergenetics Ireland,53.3511113,-6.248712599999998,Company
Goshawk Ireland,53.3414535,-6.2578944000000005,Company
Metlife Europe,53.333640599999995,-6.257194399999999,Company
Facebook Ireland Ltd,53.3440429,-6.2388825,Company
Transics Ireland Limited,53.33753979999999,-6.2516862999999985,Company
Hannover Re (Ireland) PLC,53.35141089999999,-6.2484306,Company
Google Ireland Limited,53.33906089999999,-6.2350702999999985,Company
Tableau Software,53.331491899999996,-6.231049700000001,Company
AIG Europe Services Limited,53.34772539999999,-6.2395451999999985,Company
AXA MPS Financial,53.3468988,-6.2532538,Company
AXA MPS Financial,53.346815600000006,-6.253539599999999,Company
Jinny Software,53.34906360000001,-6.2725668,Company
Docusign International,53.341936200000006,-6.2481412,Company
Inora Life Limited,53.3489564,-6.247024300000001,Company
Lgt Capital Partners,53.3332495,-6.2583743,Company
Lone Star Funds,53.33193829999999,-6.2560367,Company
UnipolRe Ltd,53.3413042,-6.230584899999998,Company
Wgz Bank Ireland PLC,53.350911399999994,-6.2493123,Company
Citco Fund Services (Ireland) Limited,53.347950899999994,-6.246127099999999,Company
Scor Global Life Reinsurance Ireland Limited,53.3461985,-6.242467299999999,Company
Citi NA (Ireland),53.3481341,-6.2450651,Company
Geneva Trading,53.346921200000004,-6.2496893999999985,Company
CNP/ Santander,53.3338586,-6.2605366999999985,Company
Athora Ireland PLC,53.3483908,-6.2504650999999996,Company
Maples Fund Services Ireland Limited,53.34017559999999,-6.2643461999999985,Company
Cosmo Pharma - Ireland,53.3458488,-6.2390763,Company
Zellis Ireland Limited,53.341225699999995,-6.2486824,Company
Octium Life DAC,53.34256260000001,-6.256766700000001,Company
Tmf Management (Ireland) Limited,53.3381684,-6.248103700000001,Company
Aareal Bank Ag,53.347950899999994,-6.246127099999999,Company
Admiral Administration (Ireland) Limited,53.3449563,-6.238471499999998,Company
Logmein,53.3438022,-6.2319723,Company
Dropbox,53.3338586,-6.2605366999999985,Company
Cattolica Life Limited,53.34994829999999,-6.2473557999999985,Company
Cattolica Life Limited,53.34994829999999,-6.2473557999999985,Company
Colt Technology Services Limited,53.3538223,-6.2288403,Company
Riot Games,53.34623269999999,-6.2453093,Company
Tata Consultancy Services,53.3325955,-6.2527021,Company
Mcap Europe,53.33777139999999,-6.2556682,Company
Ferro FinCo Ireland Limited,53.332471700000006,-6.2619526,Company
Data Clarity Emea,53.32350989999999,-6.2589308,Company
MUFG Fund Services (Ireland) Limited,53.3351708,-6.256516099999999,Company
Minds and Machines,53.34271510000001,-6.257485900000001,Company
Squarespace,53.34135389999999,-6.267764700000001,Company
Veolia Industries Global Solutions (VIGS Ireland),53.34541899999999,-6.234947600000001,Company
Blackrock,53.32997760000001,-6.2284554000000005,Company
Groupon International,53.3326375,-6.2471223,Company
Sidetrade Ireland,53.3378498,-6.2417951999999985,Company
Ava Capital Markets Limited,53.35492619999999,-6.2466998999999985,Company
Walkers Global,53.3462687,-6.2438870999999985,Company
Walkers Global,53.3462687,-6.2438870999999985,Company
Aersale Incorporated,53.332471700000006,-6.2619526,Company
Mapflow / Lexisnexis Risk Solutions,53.33584399999999,-6.2630580999999985,Company
Storyful Limited,53.334729700000004,-6.2463790999999995,Company
Hubspot Ireland Limited,53.34836379999999,-6.2413672,Company
Moneycorp Limited,53.33692320000001,-6.2530833,Company
Horizon Pharma,53.332691000000004,-6.247334700000001,Company
Mallinckrodt,53.3431303,-6.2545633999999986,Company
Nuodb Ireland,53.338964600000004,-6.251744299999999,Company
Total Defense,53.33049499999999,-6.228127099999999,Company
Zurich Incorporated Company Ireland,53.329437,-6.229419,Company
Blackstone Group LP,53.3365234,-6.244983299999999,Company
Fcstone Commodity Services (Europe) Limited,53.3445799,-6.2283474000000005,Company
Fcstone Commodity Services (Europe) Limited,53.344603,-6.2284916,Company
HCL Technologies,53.352993000000005,-6.259181,Company
Etsy Ireland,53.34676169999999,-6.267030200000001,Company
Caceis Investor Services (Ireland),53.3482193,-6.2467728,Company
LinkedIn Ireland,53.334287399999994,-6.2495107,Company
Adroll Ireland,53.3321792,-6.2457595999999995,Company
Aercap Aviation Solutions,53.3359921,-6.2575756999999985,Company
Apollo Aviation Management Limited,53.3330123,-6.2472436999999985,Company
Apollo Aviation Management Limited,53.3326375,-6.2471223,Company
Acumen Aviation LLP,53.34545110000001,-6.2334333,Company
Surveymonkey.Com,53.331968599999996,-6.2295720999999995,Company
Lgt Bank (Ireland) Limited,53.3332495,-6.2583743,Company
Workday,53.347927799999994,-6.275035,Company
International Data Group,53.347005,-6.2651309999999985,Company
Dechert LLC,53.35020649999999,-6.246353599999999,Company
Scotiabank (Ireland) Limited,53.3483908,-6.2504650999999996,Company
Depfa Bank PLC,53.3458585,-6.2507611,Company
BNP Paribas Fund Services Dublin Limited,53.3417971,-6.253533999999999,Company
Regeneron Pharmaceuticals Incorporated Dublin,53.333683400000005,-6.2631431,Company
New Relic International Ltd.,53.341069,-6.267545399999999,Company
JP Morgan Merchant Services,53.344805799999996,-6.2315043,Company
Harland Financial Solutions,53.33049499999999,-6.228127099999999,Company
Intellectual Ventures,53.332471700000006,-6.2619526,Company
Apleona HSG Facility Management,53.33286099999999,-6.235411599999999,Company
Primeur Dublin,53.34351299999999,-6.2837019,Company
Twitter International,53.3417468,-6.2494858,Company
AON Centre For Innovation and Analytics,53.352392200000004,-6.2542065000000004,Company
AON Centre For Innovation and Analytics,53.352392200000004,-6.2542065000000004,Company
Zynga Incorporated,53.3314552,-6.2314756,Company
Zynga Incorporated,53.3314552,-6.2314756,Company
Eea Fund Management,53.33373910000001,-6.2524795,Company
CDB Aviation,53.3471706,-6.252800700000001,Company
Hudson's Bay Company Dublin,53.3330289,-6.2312037,Company
Equifax Ireland,53.3453895,-6.2357621,Company
CarGurus Ireland Limited,53.334173899999996,-6.2624102,Company
Morgan Stanley Fund Services (Ireland) Limited,53.34638400000001,-6.245101999999999,Company
Morgan Stanley Fund Services (Ireland) Limited,53.346418500000006,-6.2450389999999985,Company
Prudential International Assurance PLC,53.33305559999999,-6.259964599999999,Company
Infocare Health Systems,53.342189000000005,-6.283792,Company
Infocare Health Systems,53.34351299999999,-6.2837019,Company
Pond5 Media Ireland Limited,53.34760060000001,-6.2333678,Company
Pond5 Media Ireland Limited,53.3326049,-6.2615973999999985,Company
Sankaty Advisors,53.33514599999999,-6.250432900000001,Company
Bloomberg Polarlake,53.332928700000004,-6.2622152,Company
Aztec Exchange Limited T/a aztec Money,53.345639500000004,-6.271448599999999,Company
Neomed,53.3370782,-6.2504355999999985,Company
Stepstone (Swiss Capital Invest Holding (Dublin) Limited),53.3330537,-6.2531123,Company
Takeda Global Supply Chain,53.3362394,-6.2471773,Company
Dubai Aerospace Enterprise,53.345093000000006,-6.2357517,Company
ZIV Automation Ireland,53.34404199999999,-6.2648598999999985,Company
Smartbox Group Limited,53.351669900000005,-6.2515727,Company
Everest Reinsurance Company Ireland Limited,53.3386927,-6.2551991,Company
Pinger Incorporated,53.332558,-6.2526934,Company
Hudson Advisors Europe Limited,53.334027600000006,-6.2535523,Company
International Lease Finance Corporation,53.3478321,-6.241581800000001,Company
Axway,53.3354118,-6.243196599999999,Company
Snp,53.32940139999999,-6.2305199999999985,Company
Oasis Group (Ireland) Limited,53.330454700000004,-6.2589079000000005,Company
Ironshore,53.33228949999999,-6.2306548,Company
Indeed Ireland Operations,53.3392397,-6.261826,Company
Amanie Advisors (Ireland) Ltd,53.3243289,-6.2413967,Company
Amanie Advisors (Ireland) Ltd,53.355795400000005,-6.2954247,Company
Emaint EMEA Ltd (Fluke Corp),53.3491534,-6.2734404,Company
Stripe,53.33998470000001,-6.2430786,Company
Youniversal Media Dublin,53.3362868,-6.252928199999999,Company
Pivotal Software International,53.349137,-6.247751,Company
Quintillion Holding Co. Limited,53.346887100000004,-6.249479699999998,Company
PTC Therapeutics International Limited,53.3392257,-6.2387811,Company
Dita Eyewear Europe Ltd.,53.336971,-6.273718,Company
Innovative Interfaces Global,53.346815600000006,-6.253539599999999,Company
Utexam Logistics Limited,53.34961819999999,-6.2466773999999985,Company
Pearl Street Enterprises,53.350236100000004,-6.2600685999999985,Company
Luz Ireland,53.333982999999996,-6.2497262000000005,Company
Twilio Ireland,53.3326049,-6.2615973999999985,Company
Slack Technologies Limited,53.333732999999995,-6.2617291,Company
Simply Zesty,53.3425769,-6.2366343,Company
Tripadvisor Ireland,53.34551999999999,-6.235659,Company
Future Finance Corporation,53.345833400000004,-6.2452492999999984,Company
Greenval Insurance DAC,53.343793500000004,-6.2545715999999985,Company
Greenval Insurance DAC,53.3417971,-6.253533999999999,Company
ENEL X Enernoc Ireland,53.342259999999996,-6.243861600000002,Company
Koooma Limited,53.3482438,-6.256214399999998,Company
Brown Bag Films,53.3478304,-6.2793584000000005,Company
Openjaw Technologies,53.34620899999999,-6.2683439000000005,Company
Zalando Se | Ireland,53.3426657,-6.2389356,Company
Tc Aviation Capital Ireland Limited,53.34545110000001,-6.2334333,Company
Fidelity International Limited,53.34588839999999,-6.252504099999999,Company
Brandes Investment Partners Europe Limited,53.33724849999999,-6.2497941,Company
Free Now,53.3377496,-6.2461394,Company
Memjet,53.3379603,-6.2495984,Company
Telnyx Ireland,53.34465789999999,-6.2492652,Company
Adara,53.3374937,-6.2732776,Company
Synchronoss Software Ireland Limited,53.3444669,-6.250235900000001,Company
Lazard Asset Mangament,53.33696519999999,-6.260999699999998,Company
SAS Institute EMEA,53.34957619999999,-6.250260400000001,Company
PicMonkey Ireland Limited,53.343441500000004,-6.283721799999999,Company
Matt The Rashers,53.32045912742615,-6.291814,Cafe
Brew 204,53.322779,-6.279299,Cafe
Green Fox Café,53.322396,-6.2794870000000005,Cafe
Noshington Cafe,53.324312235759784,-6.279609616240134,Cafe
Kylemore Cafe,53.32269700428402,-6.265252293740665,Cafe
White Pepper Cafe,53.3235550610239,-6.2651892425057945,Cafe
Isabella's cafe,53.322766,-6.265556,Cafe
Mima,53.32104340263711,-6.2547579465864525,Cafe
Butlers Chocolate Café,53.32456624542825,-6.2533982105337635,Cafe
Café Java,53.32452093630325,-6.240511076360754,Cafe
Bakers,53.32202288655999,-6.236611566964903,Cafe
Panda Play Cafe,53.321526,-6.2287664000000005,Cafe
Gammells,53.32528301478512,-6.254421197330875,Cafe
Canal Bank Café,53.3311835845276,-6.251595128139023,Cafe
Café Java,53.331137800297114,-6.251721987368394,Cafe
Maia,53.330323509352176,-6.231911328638706,Cafe
Roly's Cafe,53.32963677219833,-6.232164233673372,Cafe
Cafe Java,53.330315981833714,-6.231890721714229,Cafe
The Orange Goat,53.330452,-6.225113,Cafe
Deli-ious,53.332085,-6.295128,Cafe
Noshington Café,53.331431026479024,-6.279729727137167,Cafe
Little Bird,53.332375,-6.2737164000000005,Cafe
Bibi's Cafe,53.33355385527207,-6.272624130264353,Cafe
Alma,53.332449,-6.268992,Cafe
Brother Hubbard South,53.332681727824,-6.265482324880568,Cafe
Monto Cafe,53.33303260509657,-6.264970365449634,Cafe
The Art of Coffee,53.33287944381893,-6.2622955012781105,Cafe
Baxter & Greene,53.33269471049975,-6.2635707855289375,Cafe
Doughboys,53.33370134351185,-6.2642782830574,Cafe
Café Sol,53.33269588188287,-6.2634309028525115,Cafe
Old Bank Café,53.33281474148797,-6.253206462355517,Cafe
Eathos,53.33369883690246,-6.244699325471553,Cafe
Butlers Chocolate Café,53.33152800000001,-6.232009,Cafe
Marlowe & Co,53.334316,-6.280837,Cafe
DANIEL,53.334907,-6.273834,Cafe
Cake Café,53.33448838783103,-6.265880107804921,Cafe
Fontana Cafe,53.33512520884396,-6.265258465202787,Cafe
Cocu,53.333987472118615,-6.261921020332598,Cafe
Peacock Green,53.33374627807114,-6.261471218002058,Cafe
Peacock Green,53.33424045372287,-6.255265995469331,Cafe
Artizan Food Co,53.33412976687994,-6.2453464118492805,Cafe
Cocu,53.33382151312187,-6.244872269092423,Cafe
High Nelly's Coffee House,53.334542682968795,-6.243644323278028,Cafe
Press Cafe,53.33505764739972,-6.235269426252875,Cafe
Quench,53.333738,-6.22857,Cafe
Whitty's Restaurant,53.333547,-6.22423,Cafe
Cafe Togo @F2,53.337526312921035,-6.2933265218306325,Cafe
The Arch,53.337599,-6.292868,Cafe
Cafe Du Jour,53.337151,-6.285757,Cafe
Gilli Cafe,53.338021999999995,-6.287178599999999,Cafe
Phoenix Cafe,53.337825,-6.277252,Cafe
The Fumbally,53.33703902062517,-6.272902048559232,Cafe
Olive Café,53.337179768334295,-6.274075631969215,Cafe
Green Bench Cafe,53.336445,-6.2640676,Cafe
Goose on the Loose,53.33765634855233,-6.265960813140503,Cafe
Cafe Sofia,53.33737237878547,-6.265658891849491,Cafe
Cafe Sol,53.335908258640956,-6.257387594131192,Cafe
Coppa,53.33701482852736,-6.254511424683298,Cafe
Munchies,53.338115854971065,-6.253288755197621,Cafe
Voila,53.337847196332035,-6.2519996644318425,Cafe
Rhubarb Cafe,53.33722843821209,-6.252121925354004,Cafe
Café Sol,53.337689684390966,-6.251821517944336,Cafe
Café Sol,53.336645331512884,-6.248711921510112,Cafe
Canal Express,53.337936,-6.237907,Cafe
Juniors Deli Cafe,53.33715952435395,-6.2342225964389,Cafe
Foodgame,53.33745241241583,-6.234235490380063,Cafe
Farmer Browns,53.33726019892186,-6.2318635348333045,Cafe
coffee DOC,53.339438,-6.29479,Cafe
leopold coffee house,53.33955200000001,-6.294955,Cafe
Pizzeria Hub Cafe,53.33924828448369,-6.2800200812790985,Cafe
Cathedral Cafe,53.33912204964565,-6.272914188242695,Cafe
The Third Space,53.33926773071289,-6.266035079956055,Cafe
Le Centre-Ville,53.34003910317022,-6.262083809714833,Cafe
Hatch & Sons,53.33951478287386,-6.258459815335717,Cafe
TANG by Yogism,53.33960300083728,-6.258673995697211,Cafe
Perc Up Café,53.33975241876243,-6.261434555053711,Cafe
Havana Café,53.340310999148905,-6.260875134438468,Cafe
Rhubarb Cafe,53.338223782642224,-6.253615989791885,Cafe
Füdi,53.339344,-6.245902,Cafe
Camerino Cafe & Bakery,53.339256000000006,-6.246389,Cafe
Angel Park Café & Deli,53.33932637842961,-6.2455737364603126,Cafe
Annie's,53.338078,-6.2365103,Cafe
Cooperage Cafe,53.34189882192628,-6.286788287127234,Cafe
Barge Café,53.341760222490514,-6.286899001567007,Cafe
"Dave's Cafe, Grill & Deli",53.3412025,-6.27854967,Cafe
The Silk Road Café,53.34224422255952,-6.267362236976623,Cafe
Taste!,53.34105076267331,-6.2633662355760125,Cafe
Wolf + Spoon,53.34072688558164,-6.265511131938497,Cafe
Caffe Amore,53.34217628535154,-6.264664742067793,Cafe
Sasha House Petite,53.34163160215936,-6.263819189476499,Cafe
The Pepper Pot,53.34224827252975,-6.261858400464457,Cafe
Bewley's Café & Tea Room,53.341652662541854,-6.260308027267456,Cafe
Butlers Chocolate Café,53.34101119484857,-6.262327400571575,Cafe
Pygmalion Café,53.34219410676322,-6.261931791805685,Cafe
Busyfeet & Coco Café,53.34111637510458,-6.263205070743028,Cafe
Simon's Place,53.34256812621118,-6.264448688671568,Cafe
Metro Café,53.34117189020092,-6.26308985660634,Cafe
Dolce Sicily,53.34094200000001,-6.258772,Cafe
Java Republic,53.341085,-6.256274,Cafe
Butlers Chocolate Café,53.34252558800478,-6.256183519006574,Cafe
The Gallery Café,53.341766,-6.252516,Cafe
Brewbaker Cafe,53.342102043241,-6.254026402218082,Cafe
Coffee Angel South Leinster Street,53.34198779886505,-6.253560736703019,Cafe
Café Sol,53.34139130507678,-6.251320058000673,Cafe
Brambles Deli Café,53.340692,-6.254883,Cafe
Cafe Tri Via,53.341976919900254,-6.250551219952691,Cafe
Café Sol,53.34178459033971,-6.250308039442261,Cafe
Lolly & Cooks,53.34109,-6.245571599999999,Cafe
Il Caffe di Napoli,53.341479396352796,-6.246704456743107,Cafe
The Bridge Cafe,53.341715322959786,-6.228177363621643,Cafe
D4 Deli,53.339984052781325,-6.223819155089205,Cafe
HSQ Café,53.344766398632004,-6.296727721369,Cafe
Groundstate,53.343284,-6.288568,Cafe
U Café,53.34306899999999,-6.290527,Cafe
Hub Grub,53.344201897788466,-6.2833567837803495,Cafe
Manning's Bakery,53.34294809022194,-6.279837721294522,Cafe
Christ Church Crypt Café,53.34343900274872,-6.271226729183228,Cafe
Queen of Tarts,53.34425548923581,-6.268803518465996,Cafe
Queen of Tarts,53.344055424793844,-6.267618184274339,Cafe
Toffoli,53.34330111335376,-6.269330978393555,Cafe
Bittersweet,53.34385674636586,-6.268975958863951,Cafe
d-café,53.343777,-6.269027,Cafe
Chorus Cafe,53.34443704691657,-6.2699517599143855,Cafe
Copper Alley Bistro,53.3436521748781,-6.2698272144827545,Cafe
Dublin Castle Café,53.342032841257144,-6.267142295837402,Cafe
The Terrace Cafe,53.342784,-6.266922,Cafe
Keogh's Cafe,53.34403512915021,-6.2622378357471415,Cafe
Avoca Cafe,53.34350678507453,-6.259839814772091,Cafe
Coffee Angel,53.3439538262201,-6.262250135123995,Cafe
Le Petit Parisien,53.34298924119526,-6.2612420151508505,Cafe
Sound Bites Café @Tower Records,53.342794880761296,-6.260414973838532,Cafe
Yellow Cup House,53.34492099319871,-6.2528443637040745,Cafe
Lunch,53.34439332389408,-6.249069401976786,Cafe
KC Peaches,53.34268060201798,-6.2403140464590825,Cafe
Lolly & Cooks,53.34456307561046,-6.2383793732915205,Cafe
Pause Cafe,53.343912826552184,-6.234169963416155,Cafe
Cafe Togo,53.346531008302144,-6.292794069987192,Cafe
The Royal Kitchen,53.34330002491642,-6.2900299652193405,Cafe
Craft Coffee Roasters,53.34518863374289,-6.275479715265659,Cafe
Oxmantown,53.34705891025318,-6.270176017790207,Cafe
The Music Café Dublin,53.345243,-6.267467,Cafe
Stage Door Café,53.34516114286867,-6.265808619885823,Cafe
Panem,53.346325,-6.2654260000000015,Cafe
Camerino,53.34691161780167,-6.2681621717251526,Cafe
Love Is Art,53.34655895294165,-6.267449480551622,Cafe
Cappuccino Bar,53.344993851045466,-6.263678708230147,Cafe
Butlers Chocolate Café,53.346969446904964,-6.2633004547449875,Cafe
Pieman,53.34515717034402,-6.262848989012803,Cafe
Shoe Lane Coffee,53.34714746952025,-6.255074526485771,Cafe
Cafe Cairo,53.345053456754464,-6.253966323089206,Cafe
Pog,53.345711,-6.255021,Cafe
redrose cafe,53.34682083129883,-6.255844593048098,Cafe
Barista Angel,53.3464756469571,-6.243757637708304,Cafe
Café Sora,53.34543777375257,-6.233579977990034,Cafe
Calimero,53.34387397217179,-6.234191874810424,Cafe
Fair Play Café & Garden Centre,53.34403333395046,-6.2258032759062,Cafe
The Berry Lane Cafe,53.34812931786995,-6.2946383615238775,Cafe
Brambles Deli Café,53.349038710684226,-6.285392352624513,Cafe
Proper Order Coffee Co.,53.34755799999999,-6.2795190000000005,Cafe
The Third Space,53.34774967678867,-6.278422307856308,Cafe
Provender & Family,53.34746703506397,-6.278757739893402,Cafe
Brother Hubbard North,53.347137297907544,-6.2683769070488475,Cafe
The Tram Café,53.34809085398427,-6.266724778711172,Cafe
Lemon Jelly Café,53.34716875396465,-6.265365503960125,Cafe
Mes Amis,53.34788675944942,-6.264281038331442,Cafe
Cafe @ Debenhams,53.349262,-6.263857,Cafe
Insomnia,53.34835718215506,-6.2603838183965985,Cafe
Tang - Abbey Street,53.348711,-6.258295,Cafe
Jaffa Xpress,53.347377804382134,-6.256915189733312,Cafe
Pog,53.34738238609486,-6.259838833315714,Cafe
Jaffa on the Quay,53.347414,-6.253182,Cafe
Seven Wonders,53.348313479291456,-6.243677063060392,Cafe
Insomnia,53.348602,-6.230049,Cafe
Mish.Mash,53.35000122530669,-6.269329914423047,Cafe
Rooftop Terrace @Debenhams,53.34922447178414,-6.263947560645157,Cafe
Butlers Chocolate Café,53.34886850377452,-6.2657378065845775,Cafe
Kay's Kitchen,53.348081770644036,-6.266305818598879,Cafe
Quigleys Cafe,53.349688788003995,-6.26467270517169,Cafe
Reflection Cafe Brasserie,53.34976699507119,-6.263566039900348,Cafe
Brambles,53.34812548989584,-6.2663239790559375,Cafe
Butlers Chocolate Café,53.3497565678165,-6.260579092384655,Cafe
Soma,53.34987,-6.260066,Cafe
Cafe Aroma,53.348290565195505,-6.261863708496094,Cafe
Cafe Aroma,53.349306259324344,-6.2610664731245675,Cafe
Bia Cafe,53.34963354362547,-6.260053341653928,Cafe
In Cahoots,53.351653000000006,-6.2635058300000015,Cafe
Marlborough Cafe,53.349973513959064,-6.2579572464836035,Cafe
LikeaCoffee,53.34727842,-6.26022198,Cafe
Brasilia,53.350023045036146,-6.2561006470417615,Cafe
Art Cafe Dublin,53.34996219539401,-6.253660014184012,Cafe
Frank and Honest Gourmet Coffee Company,53.350756,-6.254142,Cafe
"Laine, my love",53.35131966547471,-6.251252660133113,Cafe
Insomnia,53.351114,-6.252776,Cafe
Cowtown Cafe,53.352382455326214,-6.284045176054008,Cafe
East Road Neighbourhood Cafe,53.352608,-6.232174,Cafe
Java Bay,53.35320353507996,-6.285312,Cafe
Jays,53.354315,-6.271774,Cafe
The Silk Road Cafe,53.35483923637581,-6.270527130942737,Cafe
Lovin Spoon,53.35567270157358,-6.264771323705586,Cafe
Old Music Shop,53.3548772681966,-6.263787233401223,Cafe
Candy Café,53.354725837904084,-6.263639674608003,Cafe
One Society,53.35404000000001,-6.2565665,Cafe
Brazilia Café,53.35285825496433,-6.247003780429987,Cafe
Sweet Spot,53.3555,-6.2342143,Cafe
Raluca's,53.357805000000006,-6.287571989604633,Cafe
Clement & Pekoe,53.356813,-6.26768,Cafe
Canajun,53.35802459716797,-6.269218444824219,Cafe
Industrial Cafe,53.35818,-6.2692003,Cafe
Cloud Cafe,53.357153,-6.243322,Cafe
Cozy Cafe,53.35709490352264,-6.243091983089918,Cafe
Pickles Deli,53.32102098168816,-6.29301519753297,Restaurant
Monto Cafe,53.320751748739326,-6.292582590583062,Restaurant
Apache Pizza,53.322971493677606,-6.2952671944877014,Restaurant
Craft Restaurant,53.322698,-6.2793160000000015,Restaurant
Poppadom,53.320836,-6.278803,Restaurant
Bombay Pantry,53.3221802361668,-6.267244006222508,Restaurant
Leo Burdock's,53.322228618831346,-6.2672444718161175,Restaurant
Saba to Go,53.32215566672056,-6.267247178606415,Restaurant
Ho Ho,53.32222423980898,-6.267240394286227,Restaurant
Tippenyaki,53.322555870135844,-6.2651126818761975,Restaurant
Voici,53.321746,-6.2662510000000005,Restaurant
Little Ass Burrito Bar,53.321589110714996,-6.2667087327804,Restaurant
Manifesto,53.32385139464043,-6.265345862474757,Restaurant
Kafka,53.32324740728558,-6.265518062500579,Restaurant
Elephant & Castle,53.32258,-6.265456,Restaurant
Eddie Rocket's,53.32222700389399,-6.265534375026164,Restaurant
Abrakebabra,53.32161055462071,-6.266737278476534,Restaurant
Shakshuka,53.32216,-6.266478,Restaurant
Tolteca,53.32322799615692,-6.26560913487961,Restaurant
The Natural Bakery,53.32210803679678,-6.265683978306524,Restaurant
Grill 201,53.322424912626865,-6.265789389217389,Restaurant
Stella Diner,53.3223022969837,-6.26575733575275,Restaurant
McDonald's,53.323575738073494,-6.265473922020298,Restaurant
Peperina Garden Bistro,53.321004190186386,-6.256584697902901,Restaurant
Cinnamon,53.322828603092574,-6.252679824829103,Restaurant
Bamboo,53.32188571738666,-6.2529809,Restaurant
Bunsen,53.324019928414224,-6.2516771727290354,Restaurant
The Butcher Grill,53.324288021599635,-6.252727790636183,Restaurant
La Bodega,53.3240742057365,-6.251773712393442,Restaurant
TriBeCa,53.32436697233526,-6.2529963178602825,Restaurant
Layla’s,53.32369,-6.250781,Restaurant
The Wild Goose,53.32330500000001,-6.250069,Restaurant
Nightmarket,53.32389300000001,-6.251195,Restaurant
Deli 97,53.324044764814516,-6.25168734594242,Restaurant
Luigi's,53.323873,-6.2513190000000005,Restaurant
Antica Venezia,53.32430340065113,-6.252744941189422,Restaurant
Marco Pierre White Courtyard,53.32269393763625,-6.238742673320477,Restaurant
O'Connells,53.32292082683365,-6.238303543839764,Restaurant
Mulberry Garden,53.32265875223265,-6.2368013751977935,Restaurant
Borza,53.322436,-6.237578,Restaurant
The Natural Bakery,53.322635,-6.2379,Restaurant
Eddie Rocket's,53.32215628047899,-6.237519098489997,Restaurant
Abrakebabra,53.322555,-6.237678366666668,Restaurant
The Greenery,53.320967228936034,-6.234802696107716,Restaurant
Mao at Home,53.32106535531274,-6.234606264465097,Restaurant
V-Top Big Bite,53.3234143663671,-6.295359134674072,Restaurant
Mantras,53.32423957907622,-6.2962146138456525,Restaurant
Indian Spice,53.324516580826646,-6.295938491821289,Restaurant
Lil Portie,53.325363,-6.266945,Restaurant
Umi Falafel,53.32460317198452,-6.2652399510660395,Restaurant
The Orange Tree Bakery,53.3263017841516,-6.264923528599027,Restaurant
Farmer Browns,53.32484684643786,-6.265192137425059,Restaurant
Camile Thai,53.32561272812375,-6.265108946406852,Restaurant
Tadka House,53.32557497749746,-6.265168586458612,Restaurant
Hit The Spot,53.325477,-6.265045,Restaurant
Baked,53.325419,-6.265057,Restaurant
Subway,53.325565942294084,-6.264849882432486,Restaurant
Chopped,53.32658000000001,-6.264835,Restaurant
Domino's Pizza,53.32668836627092,-6.2647075775586245,Restaurant
Kinara Kitchen,53.32583498794115,-6.255525545236027,Restaurant
Host Restaurant,53.326067322728214,-6.2558555603027335,Restaurant
Rita's,53.325863,-6.2555695,Restaurant
Dillinger's,53.32484399999999,-6.2540665,Restaurant
Pinocchio,53.32613385462879,-6.2558233677717086,Restaurant
Wowburger,53.325192824696934,-6.255143298463732,Restaurant
Milano,53.325068556395365,-6.254135063450918,Restaurant
Ranelagh Takeaway,53.32506094285842,-6.255430836802992,Restaurant
Mak At D6,53.3251171036113,-6.255344134954406,Restaurant
Mario's,53.324986,-6.254391,Restaurant
The Natural Bakery,53.325374507359896,-6.254976935571335,Restaurant
Emerald Court,53.326001088681096,-6.255703720916798,Restaurant
Rasoi Indian To Go,53.32516999999999,-6.254991,Restaurant
Subway,53.325084037116916,-6.255234124400796,Restaurant
Diep at Home,53.325325,-6.254812,Restaurant
Michie Sushi,53.32539546923294,-6.251777211275067,Restaurant
The Butler's Pantry,53.32418078870066,-6.239782280929698,Restaurant
Avalon,53.324452,-6.24023,Restaurant
Real Gourmet Burger,53.32464893493079,-6.229426844266199,Restaurant
The Brasserie Restaurant,53.32592272475035,-6.224632317451135,Restaurant
D4 Diner,53.3261785810382,-6.226296606333277,Restaurant
Seasons Restaurant,53.32669421212802,-6.226322729902973,Restaurant
Hx46,53.327560096995455,-6.2772526911862725,Restaurant
3 in 1,53.327694,-6.2775050000000014,Restaurant
The Patisserie,53.328418000000006,-6.2745440000000015,Restaurant
New Empire,53.327109,-6.264885,Restaurant
Paella Guys,53.32806380402872,-6.247381937193485,Restaurant
Moobs - Ireland,53.328349963355826,-6.245801162855295,Restaurant
Baan Thai Restaurant,53.32883151419296,-6.230289809266218,Restaurant
Base Wood Fired Pizza,53.32886860026385,-6.230201898193267,Restaurant
Kites,53.329249853768104,-6.231632591824456,Restaurant
Bellucci's,53.328631254789364,-6.229506760826141,Restaurant
Hemingways,53.32917909823097,-6.231068736716808,Restaurant
Girl and the Goose Restaurant,53.32875420198304,-6.230765146815747,Restaurant
Al Boschetto,53.3291512622891,-6.231104535094364,Restaurant
The Reading Room,53.32700637970362,-6.226402519227056,Restaurant
Roma Takeaway,53.33088579738747,-6.296238899230957,Restaurant
Emerald House,53.331295855208424,-6.2949299812316895,Restaurant
Great Wall House,53.32982965667252,-6.2905070913635175,Restaurant
Konkan Indian Restaurant,53.33080982449845,-6.275228432217097,Restaurant
Jolin's Vietnamese Coffee House,53.33056,-6.275213,Restaurant
Arthurs Restaurant,53.330633271334406,-6.278183465118043,Restaurant
Locks 1 Windsor Terrace,53.32987175888706,-6.2720545846718485,Restaurant
I Monelli,53.32988733435199,-6.268703500017617,Restaurant
grubhub,53.32939754425042,-6.2731260626178535,Restaurant
Viva,53.330817922314345,-6.2644362458308125,Restaurant
Rotana Café,53.330376,-6.2642016,Restaurant
The Greenery on Lennox,53.3312599595312,-6.266833062586881,Restaurant
El Toro Bravo,53.33084492955585,-6.26441209277021,Restaurant
Richmond,53.331083879601096,-6.2645405952477855,Restaurant
Asahi,53.330934,-6.260997,Restaurant
The Bretzel Bakery,53.33130410829873,-6.264942895979973,Restaurant
Aprile,53.33124380265325,-6.264555393157492,Restaurant
City Canal Cruises,53.3307301755709,-6.258652,Restaurant
Gaudens Restaurant,53.330491,-6.2618839999999985,Restaurant
Pak Chak Banana Ball,53.329678,-6.253076,Restaurant
The Little Kitchen,53.3305896915001,-6.251368295011614,Restaurant
The Sussex,53.33133191458508,-6.251560762172171,Restaurant
Forest & Marcy,53.330245,-6.251474,Restaurant
The Sussex Breakfast Room,53.330992,-6.24856,Restaurant
The Little Kitchen Restaurant,53.32848816158797,-6.251853704452515,Restaurant
Le Perroquet,53.330487,-6.251717,Restaurant
65 Waterloo Road,53.330239,-6.242614,Restaurant
Rogue Pizza,53.331238,-6.237623,Restaurant
The Lobster Pot,53.32930500000001,-6.23203102,Restaurant
Sanuk Thai,53.329854804954024,-6.232338529621999,Restaurant
Ravi's,53.32981269693705,-6.2324250790551226,Restaurant
Roly's Bistro,53.32973219380259,-6.232214125560664,Restaurant
Four Star Pizza,53.33032562860359,-6.231843492179197,Restaurant
Jewel in the Crown,53.33057462173712,-6.231898417159928,Restaurant
Embassy Grill,53.32986622922,-6.2325551236838335,Restaurant
Sprout,53.329401,-6.232222,Restaurant
Subway,53.33014909870587,-6.232077807189058,Restaurant
Chopped,53.331442968321255,-6.231227143808884,Restaurant
Tennesse Fried CHICKEN,53.33206,-6.295164,Restaurant
Red Aerow Chinees,53.33209100000001,-6.295089,Restaurant
Roma,53.33185400000001,-6.29441499710083,Restaurant
Camile Thai,53.33330673233266,-6.291494426112887,Restaurant
Namaste India,53.33336800000001,-6.291668,Restaurant
Arthur’s Café,53.331079,-6.278537,Restaurant
Ashby Treats,53.33367923825241,-6.281840801239014,Restaurant
Feta & Fajitas,53.33203613342163,-6.277646794769423,Restaurant
Gaillot Et Gray,53.332555000000006,-6.275421,Restaurant
Bastible,53.33218764851951,-6.274904612573388,Restaurant
Café Délicé,53.33236899999999,-6.275117,Restaurant
Full House Oriental Take Away,53.33255589008331,-6.275355219841003,Restaurant
Favourite Fried Chicken,53.332083318594464,-6.275186939981544,Restaurant
Clanbrassil House,53.331709,-6.275464,Restaurant
Chop Chop,53.33263,-6.2751980000000005,Restaurant
Pinheads Pizza,53.33243183671709,-6.274625201676352,Restaurant
Kebabish,53.333628,-6.274993,Restaurant
The Big Blue Bus,53.33168913834098,-6.2641852999183465,Restaurant
Eat Yard,53.331866516266686,-6.2643521215113225,Restaurant
Aoki,53.33218643734303,-6.2646521801585875,Restaurant
O'falafel,53.33232639123022,-6.264741736064588,Restaurant
Damascus Gate,53.33290744900845,-6.264928502105469,Restaurant
Ray's Pizza,53.33267767820053,-6.263729566445218,Restaurant
Ambala,53.33283772888008,-6.264927153122437,Restaurant
The Bakehouse,53.332721556627284,-6.264798167249384,Restaurant
Krüst HQ,53.332743840353324,-6.265361309051514,Restaurant
Portobello Pizza,53.331973,-6.264223,Restaurant
Pizza Corner,53.33194910063789,-6.264536774018822,Restaurant
Mars,53.332205656923705,-6.264610290527344,Restaurant
Box Burger,53.331726,-6.264506,Restaurant
Doolally,53.33160600000001,-6.2647080000000015,Restaurant
The Iveagh Restaurant,53.33313394529114,-6.2643444468448575,Restaurant
Abrakebabra,53.33267008708293,-6.26391355788313,Restaurant
The Birdcage Cafe & Bakery,53.33375611935923,-6.263837814331055,Restaurant
Bistrot 67,53.331485126080274,-6.261593394788383,Restaurant
Morton's,53.3334479829295,-6.262651353167469,Restaurant
Harcourt Diner,53.33261207865586,-6.263185154861321,Restaurant
The Stone Leaf,53.3331,-6.2536244000000005,Restaurant
Forest Avenue,53.3315524981272,-6.2514284585910245,Restaurant
Suesey Street,53.33273148349633,-6.25246199337057,Restaurant
Subway,53.33240555449325,-6.245567954932271,Restaurant
La Peniche,53.33336351840203,-6.248633400215986,Restaurant
Borlottie,53.333290407853326,-6.243741546523204,Restaurant
Saba,53.333481567747704,-6.243921730883121,Restaurant
Boojum,53.33368853923807,-6.246232018744737,Restaurant
Millers Pizza Kitchens,53.33303497431245,-6.243048057777423,Restaurant
Tolteca,53.33315483482381,-6.2433536575045885,Restaurant
Swedish Food Company,53.33344200000001,-6.24391,Restaurant
Bloom Brasserie,53.33374357549518,-6.244836410330085,Restaurant
O'Briens Sandwich Cafe,53.33244317209152,-6.2454849632804965,Restaurant
Sprout,53.33317,-6.243697,Restaurant
Eddie Rocket's,53.33309373305127,-6.243575528133987,Restaurant
Lock Four,53.333581,-6.246775,Restaurant
Langkawi,53.333102687651646,-6.243013247592974,Restaurant
Orchid Szechuan Restaurant,53.33246293496804,-6.236250720015116,Restaurant
Saba To Go,53.33239955702134,-6.238111423724178,Restaurant
Fxbuckley,53.332202,-6.236296,Restaurant
Shelbourne Social,53.331769979650275,-6.232327222824098,Restaurant
Tram Chowder,53.3312975178805,-6.227333302996862,Restaurant
Gino's,53.33429991330022,-6.292557481869153,Restaurant
Pen Tower Takeaway,53.33423000000001,-6.292174,Restaurant
Shang Hai Chinese Takeaway,53.33420386,-6.29215196,Restaurant
Tandoori Masala,53.33395896954936,-6.292034145321133,Restaurant
Bombay Spice,53.333948,-6.291907,Restaurant
Subway,53.3343283176249,-6.29084904987599,Restaurant
Passion 4 Food,53.334445450162974,-6.2744469801223435,Restaurant
B.B.Q Tonight,53.333922,-6.274828,Restaurant
Osvaldo's Bistro Take Away,53.33427138012062,-6.274633588829747,Restaurant
Bu-Ali,53.33438336211852,-6.2744572491659065,Restaurant
Hang Dai Chinese,53.33521738452204,-6.265130536287104,Restaurant
Sova Food Vegan Butcher,53.33537470276549,-6.266215765811612,Restaurant
Delahunt,53.33426795603084,-6.265209288627328,Restaurant
Green 19,53.33525263997968,-6.265211531755158,Restaurant
Zaytoon,53.33387846050893,-6.264951084992322,Restaurant
Mad Egg,53.33366817394043,-6.264567849170136,Restaurant
Pickle,53.333964970781935,-6.2651288667132485,Restaurant
Meet Me In The Morning,53.33542715256575,-6.266161010916347,Restaurant
Neon,53.335410738191186,-6.2652175059418305,Restaurant
Cracked Nut,53.33504308832883,-6.265267827902562,Restaurant
HappyFood,53.334946,-6.264328,Restaurant
Dall Italia pasta bar,53.33413199100618,-6.265661278047763,Restaurant
Camden Kitchen,53.33413307567554,-6.26587277661734,Restaurant
The Pig & Heifer,53.33371077538249,-6.26463623296146,Restaurant
McGuinness Traditional Take Away,53.33582,-6.2655205999999986,Restaurant
Camden Rotisserie,53.334349382894146,-6.26523898289854,Restaurant
Jerusalem,53.335446206140034,-6.26533395771762,Restaurant
Tolteca,53.33426910510322,-6.265110558147097,Restaurant
Toni's Diner,53.33367391333524,-6.2649052615589484,Restaurant
Babylon,53.33580855901172,-6.265299229824213,Restaurant
Sophie's,53.33515227944346,-6.263496737980755,Restaurant
Zambrero,53.33378710542946,-6.261518329237043,Restaurant
The Terrace Cafe,53.334645,-6.258157,Restaurant
O'Briens Sandwich Cafe,53.33366044232599,-6.261492356216638,Restaurant
The Coburg Brasserie,53.334901246561316,-6.257261282618918,Restaurant
1900,53.33427872867046,-6.262778922587067,Restaurant
Chapter & Verse,53.3349345990509,-6.2566365328590905,Restaurant
Dax Restaurant,53.33475878087824,-6.254391740424127,Restaurant
Bagel Factory,53.33433451969433,-6.25570631998367,Restaurant
Gerards Cafe & Deli,53.335725,-6.25661,Restaurant
Emer's Kitchen,53.335827,-6.256428,Restaurant
Keshk,53.33383721273779,-6.245942048862175,Restaurant
Kanum Thai,53.33393953515215,-6.24565717120064,Restaurant
Beshoff Bros,53.333914404378774,-6.245697976263082,Restaurant
Aladdin's Café,53.33381983042453,-6.2459121221713705,Restaurant
Chai Yo,53.33580011584014,-6.24761904131799,Restaurant
Thunders Bakery,53.33371370002006,-6.246410468949133,Restaurant
Zakura Noodle & Sushi,53.33382739335188,-6.244926075095207,Restaurant
Kerala Kitchen,53.33385499886855,-6.244952209992049,Restaurant
Asador,53.334621,-6.243826,Restaurant
Bondiola,53.33484944718359,-6.242452279987731,Restaurant
Angelina's Deli,53.334459,-6.244097,Restaurant
Angelina's,53.334645414807795,-6.244350540548963,Restaurant
Milano,53.33423623774585,-6.245112550125214,Restaurant
Burger King,53.33393972528679,-6.244703127548455,Restaurant
Subway,53.33390731341508,-6.244582759636501,Restaurant
Bagel Factory,53.333854,-6.24469,Restaurant
Bunsen,53.33358000000001,-6.243789,Restaurant
Druid's Restaurant,53.33333962418752,-6.240459108333515,Restaurant
The Clyde,53.33295583831384,-6.233848906813378,Restaurant
Fodder at no. 1 Ballsbridge,53.331904,-6.232241,Restaurant
Raglans Restaurant,53.332237,-6.233721,Restaurant
Cordline Restaraunt,53.33329499999999,-6.224501,Restaurant
The Line-Out Bar,53.333328,-6.224476,Restaurant
Amber Grill,53.33607366915397,-6.298117737413888,Restaurant
Rialto Malaysian Chinese Takeaway,53.33594989436363,-6.297903704182995,Restaurant
La Boulangerie Home Bakery,53.33625056351305,-6.29891191253516,Restaurant
Rose Garden,53.33674156183367,-6.29892110824585,Restaurant
Forte,53.33695963720432,-6.286991901176782,Restaurant
Silvio's Pizzeria,53.338022336671685,-6.282588369868388,Restaurant
Roma Takeaway,53.337541933332425,-6.275843816437208,Restaurant
Spice & Rice,53.3360140018624,-6.273285264335227,Restaurant
Subway,53.3374197842786,-6.273556851438457,Restaurant
Bunsen,53.337270225762474,-6.265668618588627,Restaurant
Boojum,53.33765637214633,-6.266830148203157,Restaurant
Las Tapas de Lola,53.33691999999999,-6.26549,Restaurant
Old Town Café Noodle Box,53.33700051345835,-6.265654893058264,Restaurant
Opium,53.33663730088701,-6.26611988158487,Restaurant
The Noodle House,53.33699051964463,-6.26561279940413,Restaurant
Wishbone,53.33652228001103,-6.263770958915023,Restaurant
Wowburger,53.33662398786523,-6.2654730325927765,Restaurant
Zakura Noodle & Sushi,53.336889113725384,-6.26557676745959,Restaurant
Bóbó's,53.336424720134715,-6.265500428121781,Restaurant
Credo,53.33665757730203,-6.264126809490992,Restaurant
Di Luca,53.336879,-6.263338,Restaurant
Madigan’s,53.33600927916413,-6.257037806675756,Restaurant
O'Briens Sandwich Cafe,53.33595896654771,-6.257038596967787,Restaurant
O'Briens Sandwich Cafe / Bagel Factory,53.336834846209634,-6.263091908331728,Restaurant
Cirillo's,53.337865530716456,-6.2525190586981765,Restaurant
Brookwood Restaurant,53.33791145571863,-6.252599304734478,Restaurant
Matt The Thresher,53.33704987242939,-6.25177301994876,Restaurant
The Natural Bakery,53.33788164399761,-6.252272324090807,Restaurant
FXB Steak & Seafood,53.33731440155261,-6.251954471348827,Restaurant
Lolly and Cooks,53.338183123738574,-6.253495184949457,Restaurant
Chopped,53.33813193856715,-6.253303068472277,Restaurant
Xico,53.33791902130906,-6.252706059790393,Restaurant
Pablo Picante,53.337530943821115,-6.251414834377379,Restaurant
Sushi King,53.33797647630328,-6.252918239860897,Restaurant
Ismal Kebap,53.337922502307606,-6.252827532637261,Restaurant
Yum Thai,53.33783140907517,-6.252885511721384,Restaurant
Taste of Everest,53.3377341,-6.251679,Restaurant
Mantraa,53.33759999802466,-6.251853704452515,Restaurant
Mao at Home,53.337841137984626,-6.252384184993284,Restaurant
Eathos,53.337986,-6.2525373,Restaurant
iCanteena,53.3379898071289,-6.253755569458008,Restaurant
L'Ecrivain,53.33628566496766,-6.248537790241988,Restaurant
O'Briens Sandwich Cafe,53.336453675474345,-6.248437460913991,Restaurant
Olivier's Restaurant,53.33745,-6.239673000000002,Restaurant
The Gourmet Kitchen,53.33728645578951,-6.239624619851468,Restaurant
The Bar 51,53.33679043560234,-6.238996911886871,Restaurant
Epic Restaurant,53.337871,-6.238982,Restaurant
Paulie's Pizza,53.3372597666932,-6.234690803704816,Restaurant
The Old Spot,53.33733357390815,-6.2331144589680205,Restaurant
The Chop House,53.33707380068887,-6.2343233084732645,Restaurant
Presto,53.33737155213563,-6.2343364719602095,Restaurant
Quattro,53.337288,-6.2335773,Restaurant
Quiznos,53.33954549569337,-6.294817295158057,Restaurant
Just Wing It,53.33857027215125,-6.292251157017895,Restaurant
McGuiness,53.33937099999999,-6.2867180000000005,Restaurant
Fayrouz,53.338149,-6.282769,Restaurant
Roma Fish & Chips,53.33919207407751,-6.273662338782268,Restaurant
bojum,53.33772441014187,-6.266849659175973,Restaurant
Dublin Pizza Company,53.33907389971023,-6.265971953630947,Restaurant
Aungier Danger,53.33882171593419,-6.2660909058583725,Restaurant
Krüst Express,53.33898160548039,-6.2660800722080445,Restaurant
Whitefriar Grill,53.340316,-6.265621,Restaurant
Bao House,53.338963,-6.266096,Restaurant
Gerry's,53.33661587125132,-6.264398533952563,Restaurant
Burritos & Blues,53.33748405756773,-6.265650550904026,Restaurant
Cafe Bliss,53.33654400419832,-6.26490922923432,Restaurant
Eddie Rocket's,53.33661401185893,-6.265350930059412,Restaurant
Roma II,53.336806468224715,-6.265637827455933,Restaurant
Pizzadog,53.337205783102476,-6.265862211303884,Restaurant
Momo's,53.338537116173974,-6.265662280703013,Restaurant
Páng,53.337584,-6.266389,Restaurant
Charlies 5,53.33675699999999,-6.265493,Restaurant
Citron,53.33937847005395,-6.261257941711872,Restaurant
wagamama,53.340336,-6.262641,Restaurant
Shanahan's on the Green,53.33840485870541,-6.2620738103094125,Restaurant
The Well,53.33971999999999,-6.261018,Restaurant
Peploe's,53.33942208131744,-6.25822775296813,Restaurant
The Greenhouse,53.34009598386582,-6.258517918170978,Restaurant
Stephen's Green Hibernian Club,53.33976456454565,-6.259609595040784,Restaurant
The Cliff Townhouse,53.33926043265961,-6.257282876648443,Restaurant
The Rolling Donut,53.34008680926433,-6.2610573604921065,Restaurant
Amuse,53.33983751654397,-6.258651211844013,Restaurant
Il Posto,53.339677231292235,-6.2593013559158575,Restaurant
La Ruelle,53.34018833464201,-6.258512352825494,Restaurant
The Seafood Bar,53.34038700980884,-6.2593672498336295,Restaurant
Chief Chang's Buffet,53.33992014609146,-6.26097241001315,Restaurant
TGI Fridays,53.33989006785325,-6.26127096823372,Restaurant
Subway,53.34026048751011,-6.260581624414499,Restaurant
Green & Baker,53.33979415893555,-6.260664939880371,Restaurant
Cafe Kylemore,53.339859,-6.260866,Restaurant
Tuk Tuk Asian Kitchen,53.339750353209155,-6.260556761427934,Restaurant
Sandwich Symphony,53.339726,-6.258507085650966,Restaurant
El Gringo Burrito,53.33995084977767,-6.260793715931648,Restaurant
Kylemore,53.34004053461713,-6.260477885707887,Restaurant
Pablo Picante,53.34015400000001,-6.258666000000002,Restaurant
The Dining Room,53.340401,-6.259232,Restaurant
Rocket's,53.33983810000001,-6.2611911,Restaurant
Etto,53.338266350160225,-6.253948036936138,Restaurant
Pearl Brasserie,53.338317039067405,-6.253397316992627,Restaurant
Restaurant Patrick Guilbaud,53.33840046941511,-6.252855856060933,Restaurant
The Saddle Room,53.338968954882574,-6.2560684052543305,Restaurant
Bang Restaurant,53.33844369158638,-6.25474710537941,Restaurant
Il Segreto,53.338311448793796,-6.25434865858756,Restaurant
The Unicorn,53.338226021666614,-6.254811326647668,Restaurant
The Garden Room,53.33848,-6.252507,Restaurant
Hugo's,53.33839090074065,-6.254444355110028,Restaurant
Chambers Pub,53.338303,-6.254472,Restaurant
Kokoro,53.338334,-6.253349,Restaurant
The Terrace,53.33858100000001,-6.2531550000000005,Restaurant
The Cellar,53.338428967247076,-6.252537089957544,Restaurant
O'Brien's Sandwich Bar,53.338285,-6.253562534040352,Restaurant
Itsa Bagel,53.338649882586495,-6.251896145359968,Restaurant
Merrion Square Lunchtime Market,53.33872621377388,-6.247273695992291,Restaurant
Sprout & Co Kitchen,53.33938510515419,-6.2456703772765545,Restaurant
Mamma Mia,53.33942548808732,-6.244000167350142,Restaurant
The Shaven Yak,53.33873929999999,-6.238336350000001,Restaurant
Osteria Lucio,53.34011,-6.239318,Restaurant
Dockfood Cafe,53.33977443417733,-6.236907642030124,Restaurant
Kennys Pub,53.34243100000001,-6.294404,Restaurant
Papa Mio's - Toni's Takeaway,53.34250014380867,-6.293207020837906,Restaurant
Gilroy's Restaurant,53.34178825021896,-6.286736162218973,Restaurant
1837 Bar & Brasserie,53.34183747275798,-6.286647319793701,Restaurant
Brewer's Dining Hall,53.341889647533776,-6.286535301421509,Restaurant
Arrol Suite,53.34194814701476,-6.286783801013312,Restaurant
Govindas,53.34113240288457,-6.281563552535388,Restaurant
Mero Mero Mexico,53.34103338275383,-6.281358064803383,Restaurant
Catherine's Bakery,53.34148295955738,-6.278749415597828,Restaurant
Fusco's Takeaway,53.341267390804475,-6.278691309560211,Restaurant
Buenos Aires Grill,53.340769179854576,-6.268389802735224,Restaurant
Radisson Blu Royal Restaurant,53.34080400000001,-6.268146,Restaurant
Radisson Blu - V'n V Restaurant,53.34059798290179,-6.27000153064727,Restaurant
Chimac,53.341072,-6.265733999999999,Restaurant
Pablos Tortas,53.34081062424961,-6.263191133649517,Restaurant
Five Guys,53.342009530279704,-6.265073143287383,Restaurant
What the Falafel,53.34083,-6.263687,Restaurant
Darwins,53.3412930502271,-6.265433250747267,Restaurant
l'Gueuleton,53.342031404737476,-6.264201313017478,Restaurant
Masa,53.341452,-6.263895,Restaurant
Pablo Picante,53.340885,-6.263057,Restaurant
Drury Buildings,53.34189501621221,-6.263411641278589,Restaurant
Wilde - The Restaurant,53.341321505728104,-6.261178356988907,Restaurant
La Maison,53.3422995150196,-6.262856520015593,Restaurant
Bunsen,53.3411781653968,-6.260036816527848,Restaurant
Coppinger Row,53.34207741616493,-6.26210822773242,Restaurant
Umi Falafel,53.342438,-6.2635417,Restaurant
Fade St. Social,53.341863713517284,-6.263800401605346,Restaurant
Sole Seafood & Grill,53.342078,-6.2625910000000005,Restaurant
Xian Street Food,53.34105246667946,-6.259748786687852,Restaurant
Blazing Salads Deli,53.34258728855215,-6.263188905656151,Restaurant
Saba,53.34122566239104,-6.2620529537427005,Restaurant
The Good Food Store,53.34241704452686,-6.264451789393058,Restaurant
Lolly and Cooks,53.34245389511345,-6.263330135777568,Restaurant
Kokoro Bento - The Ramen Bar,53.341610313564225,-6.26277336188155,Restaurant
Duck,53.342037,-6.2639074,Restaurant
Brasserie Sixty6,53.342543144179146,-6.264582500445577,Restaurant
Balfes,53.34134509425949,-6.261318510561467,Restaurant
Steps of Rome,53.34095526857008,-6.2616706452188495,Restaurant
Nolita,53.342469825259286,-6.264786963524928,Restaurant
Beeftro,53.341209,-6.261507,Restaurant
Dada Restaurant,53.34125848902502,-6.263038567176127,Restaurant
Alfies,53.342637013829105,-6.262571008024754,Restaurant
Terrazzo Italia,53.342176,-6.262121433333332,Restaurant
Loft Cafe,53.34128199999999,-6.260346,Restaurant
Gourmet Burger Kitchen,53.3412599479905,-6.2598236054057015,Restaurant
Featherblade,53.341741389561186,-6.258301734924316,Restaurant
Marco Pierre White Steakhouse & Grill,53.34152060745396,-6.258116630671369,Restaurant
Catch-22,53.341112730702655,-6.259621681171308,Restaurant
One Pico,53.34069491202667,-6.257282013635567,Restaurant
The Ivy Dublin,53.341439551294314,-6.258080931322334,Restaurant
Bolands Sandwich Bar,53.34139738562686,-6.25931724151958,Restaurant
Carluccio's,53.341834568661135,-6.2583897787343306,Restaurant
Le Pain Quotidien,53.3413368,-6.2576745,Restaurant
Fire Steakhouse & Bar,53.34050800862686,-6.257911926533321,Restaurant
Davy Byrnes,53.34190589975108,-6.259359157138696,Restaurant
Marks & Spencer Rooftop Restaurant,53.34224292935008,-6.259560455698053,Restaurant
Yum Thai,53.341845764651204,-6.258461808139115,Restaurant
The Pig's Ear,53.3422594524162,-6.254986572364018,Restaurant
Dunne & Crescenzi,53.342152726181155,-6.2565480042568025,Restaurant
Mama's Revenge,53.34208218403966,-6.253655674247183,Restaurant
Hansel and Gretel,53.341414775808545,-6.251501361205256,Restaurant
Subway,53.341735218426116,-6.250586476441412,Restaurant
Petit Cafe,53.34063595815914,-6.2553884133518824,Restaurant
Oscar's Bar & Kitchen,53.34134399999999,-6.251135,Restaurant
O'Callaghan Davenport Hotel Restaurant,53.341577,-6.250032,Restaurant
Town Bar & Grill,53.33968366134757,-6.255950315549513,Restaurant
Mizzoni Pizza & Pasta Co.,53.341628,-6.248377,Restaurant
Mizzoni's,53.34168056342047,-6.248326377036988,Restaurant
Musashi,53.34103610627617,-6.245054295708117,Restaurant
Di Bella,53.34104313053711,-6.245038166167388,Restaurant
O'Briens Sandwich Cafe,53.34043166638927,-6.243436490150828,Restaurant
Il Valentino,53.34258373654432,-6.238931448111456,Restaurant
Flavours,53.340636417237064,-6.236028671264648,Restaurant
Basil,53.341404,-6.231822,Restaurant
Ferrari Takeaway,53.34183966678917,-6.227806396812401,Restaurant
Lin's Palace,53.34174,-6.227488,Restaurant
Good View Chinese Take Away,53.3418477911496,-6.22775481560248,Restaurant
Subway,53.344469663754424,-6.29763831040562,Restaurant
fountian fish n chips,53.3437536993418,-6.2903510598275245,Restaurant
Vincenzo's Takeaway,53.34327549206861,-6.2819480895996085,Restaurant
Morelli’s,53.343241000000006,-6.281727,Restaurant
Subway,53.343429857951115,-6.28166294045809,Restaurant
Dublin Cookie Company,53.34308901306137,-6.280701608521648,Restaurant
O'Brien's Sandwich Bar,53.342797,-6.278283999999998,Restaurant
Vicenzo's Pizzeria,53.342857210000716,-6.278288169540343,Restaurant
The Riddler,53.34332341197376,-6.2752319607763205,Restaurant
The Food Gallery,53.34301600000001,-6.276693,Restaurant
Caffé Comino,53.34318542480469,-6.27616024017334,Restaurant
Boojum,53.343139,-6.276175,Restaurant
Belly Bites,53.34303205879898,-6.2764044049432135,Restaurant
Curry and Kebab,53.34280370895336,-6.276685715900081,Restaurant
P. Borza,53.343132997485505,-6.276216019838143,Restaurant
Rosie's Cafe,53.34299161680657,-6.269940311163317,Restaurant
Café Azteca,53.343829921779424,-6.26901803460732,Restaurant
Sano Pizza,53.344216789055395,-6.267906054651848,Restaurant
Siri Indian Cuisine,53.34355592056932,-6.269956399444577,Restaurant
Toscana Italian Restaurant,53.34407803814191,-6.267481639851786,Restaurant
Leo Burdock's,53.343067253427954,-6.269905221247653,Restaurant
Applewoods Bakery & Coffee Shop,53.343033592714384,-6.269989631238115,Restaurant
Umi Falafel,53.343908846499566,-6.2655585125726825,Restaurant
Aperitivo,53.34441563196972,-6.2672810463536335,Restaurant
Chez Max,53.34397019910745,-6.266206328479044,Restaurant
Mykonos,53.344155677236394,-6.266453001917638,Restaurant
Yamamori Noodles,53.34282147246451,-6.264443612001213,Restaurant
Beshoff Bros,53.34420943910118,-6.265972309330556,Restaurant
777,53.34322970489779,-6.264436129273385,Restaurant
Stir Crazy,53.34420278113003,-6.265236017353824,Restaurant
Pitt Bros Smoked BBQ Project,53.343562193611795,-6.264479347878297,Restaurant
Forno 500,53.344162556848275,-6.266282819309133,Restaurant
Rustic Stone,53.34298949762889,-6.264325120678388,Restaurant
Montys of Kathmandu,53.34440280795511,-6.264746240541999,Restaurant
The Bakery,53.344695697168426,-6.268453229100263,Restaurant
Fiorentina,53.34419504332779,-6.267323440726006,Restaurant
Krüst Bakery,53.34365155450264,-6.2644294180645135,Restaurant
The Exchequer,53.34321621014933,-6.263709366243996,Restaurant
Yamamori Izakaya,53.34329823750577,-6.264454421541874,Restaurant
Ukiyo Bar,53.34304618866043,-6.2636958886010685,Restaurant
Café Topolis,53.344363,-6.26734,Restaurant
Kathmandu Kitchen,53.344116363889725,-6.264945721657362,Restaurant
San Lorenzo's,53.34328736627406,-6.264452060138872,Restaurant
Fallon & Byrne Restaurant,53.343041462335606,-6.2632656143301935,Restaurant
Taste at Rustic,53.34301646067142,-6.264292795324801,Restaurant
Bunsen,53.34422900000001,-6.264182,Restaurant
Zaytoon,53.34488420337786,-6.267423820722443,Restaurant
Hai Lan,53.34420678555415,-6.265408809061962,Restaurant
Le Petit Parisien,53.34413650214992,-6.264095435531673,Restaurant
Lebanese Chef,53.342955488409004,-6.264371750132773,Restaurant
Pinocchio,53.34469,-6.268174,Restaurant
Il Vicoletto,53.34463249369146,-6.2637436040578525,Restaurant
The Port House,53.342885461090326,-6.262079675075455,Restaurant
Cornucopia,53.34302970125781,-6.26152220351811,Restaurant
FXB Grill,53.34459285148219,-6.263811430490251,Restaurant
Red Torch Ginger,53.34345203852581,-6.261806343431996,Restaurant
The Green Hen,53.34306748266119,-6.2622277682034335,Restaurant
Pichet,53.34388447764478,-6.262175956961065,Restaurant
Smokin Bones,53.34423719059824,-6.263167862887948,Restaurant
WOWBURGER,53.34287428217059,-6.260322531053803,Restaurant
The Bank,53.34424881065086,-6.2615214830544685,Restaurant
Millstone Restaurant,53.34428330578288,-6.262694670243162,Restaurant
Boeuf,53.342825,-6.262142,Restaurant
The Counter,53.34336683264455,-6.260034969301046,Restaurant
Feijoadão,53.344719755080526,-6.264285968391363,Restaurant
Trocadero,53.343399606343795,-6.2617922574307325,Restaurant
Lemon Crêpe & Coffee Company,53.3429427022535,-6.262089080976415,Restaurant
Pho Ta,53.34489696592235,-6.262630434884349,Restaurant
Boulevard Café,53.343006546380884,-6.2627863904943,Restaurant
Rosa Madre,53.3448742573452,-6.263819740173807,Restaurant
Poulet Bonne Femme @Avoca,53.34354788744805,-6.259804863810049,Restaurant
Bóbó's,53.34420457488986,-6.2638576343663805,Restaurant
The Cedar Tree,53.34321701851982,-6.261982917517187,Restaurant
Ray's Pizza,53.34441952840786,-6.262953052465025,Restaurant
Shan Indian Restaurant,53.344807,-6.263939,Restaurant
Sprout & Co Kitchen,53.34259879696007,-6.257824992316388,Restaurant
Kilkenny Restaurant & Café,53.342363162206574,-6.255363651983224,Restaurant
KC Peaches,53.34277334893986,-6.2571875695384405,Restaurant
McDonald's,53.34265108293865,-6.259489530759763,Restaurant
Subway,53.34306513996143,-6.258993100611633,Restaurant
Bagel Factory,53.34212251830129,-6.25521183013916,Restaurant
O'Briens Sandwich Cafe,53.34227643307239,-6.2550215363935875,Restaurant
Il Fornaio,53.341348,-6.258351,Restaurant
Maguire's,53.34356982785711,-6.259236470118843,Restaurant
Burger King,53.34306897377098,-6.259434872434089,Restaurant
Bread 41,53.344812,-6.251619,Restaurant
Offbeat Donut Co.,53.343752161873645,-6.249548252240838,Restaurant
Il Caffè di Napoli,53.34269204964608,-6.250146882932521,Restaurant
The Pig & Heifer,53.34345124992068,-6.246280689241267,Restaurant
Subway,53.34357217955245,-6.247424480985615,Restaurant
Camile,53.344197392539904,-6.249327134420443,Restaurant
Zambrero,53.343695,-6.247475,Restaurant
Gertrude,53.343172,-6.243476,Restaurant
Lido,53.343153761268255,-6.244480250702879,Restaurant
Apache Pizza,53.34305103697367,-6.2434658347897525,Restaurant
Urban Picnic Facebook,53.34466103930561,-6.2404265001088985,Restaurant
Donnybrook Fair,53.342792998944425,-6.238647885904995,Restaurant
Café Bar H,53.34366530418776,-6.238594425888983,Restaurant
Starry Night,53.34280422059678,-6.241345607319616,Restaurant
Herbstreet,53.344294,-6.237792,Restaurant
Charlotte Quay,53.34281800000001,-6.236952,Restaurant
Boojum,53.34433016754471,-6.2374962994606,Restaurant
Milano,53.344316000000006,-6.237025,Restaurant
The Marker Bistro,53.34442900000001,-6.23908,Restaurant
Mackenzie’s,53.34407,-6.23538,Restaurant
The Restaurant At The End Of The Universe,53.3441059100565,-6.233863722182,Restaurant
Off Beat Donut Co.,53.346394,-6.292682,Restaurant
Supermac's,53.34649533432045,-6.2927436937708014,Restaurant
Tops Pizza,53.34373944912314,-6.290323385056928,Restaurant
Crazy About Nuts & Olives,53.34276291723232,-6.288079706793767,Restaurant
Domino's Pizza,53.34668679014563,-6.2829871090490945,Restaurant
PHX Bistro,53.34659185284414,-6.281091578043907,Restaurant
Fish Shop,53.3470344543457,-6.2800559997558585,Restaurant
Moonsoon Café,53.34644953802993,-6.279982538522855,Restaurant
The Fryery,53.345560464502256,-6.277835956105844,Restaurant
Coke Lane Pizza,53.34693000000001,-6.2796106,Restaurant
The Brazen Head,53.34498178647957,-6.276335055660787,Restaurant
Cinnamon Café,53.347005363594704,-6.278689412884092,Restaurant
O'Shea's Traditional Irish Restaurant,53.3452467467943,-6.275697050479074,Restaurant
Dollard & Co,53.34541240300707,-6.267165336021602,Restaurant
DiFontaine’s Pizzeria,53.34520300000001,-6.267608,Restaurant
Roberta's,53.3451900587865,-6.267076886091221,Restaurant
Ciao Bella Roma,53.34509779049013,-6.26751396910655,Restaurant
Tomahawk,53.345135457586316,-6.267027981433167,Restaurant
Bunsen,53.34554747234978,-6.264330618504214,Restaurant
The Port House Pintxo,53.34516168741615,-6.264965488369995,Restaurant
Musashi Noodles & Sushi Bar,53.34696817829043,-6.268146554104451,Restaurant
WOW Burger,53.34540171253605,-6.26645562268096,Restaurant
Klaw Poke,53.3468064664271,-6.268147972038197,Restaurant
Wallace's Taverna,53.346442545741006,-6.2650344097459785,Restaurant
Ristorante Romano,53.34676300831249,-6.2681296540141345,Restaurant
Luigi Malones Dublin,53.345116220442115,-6.263382705614508,Restaurant
El Grito,53.345783,-6.26294,Restaurant
The Winding Stair,53.346596,-6.2637839999999985,Restaurant
Il Fornaio,53.34677273642062,-6.263192542520019,Restaurant
Eatokyo,53.346096,-6.2625737,Restaurant
The Bakehouse,53.34669510954047,-6.262436028584325,Restaurant
The Quays,53.345554067086276,-6.26312100060066,Restaurant
Klaw,53.34536835253761,-6.262868858132657,Restaurant
Gallagher's Boxty House,53.34565724292585,-6.262081097214263,Restaurant
Yamamori Sushi,53.34682271991278,-6.263758740892517,Restaurant
Pablo Picante,53.34566671771749,-6.261936343032111,Restaurant
Café Mineiro,53.34521409783051,-6.2628664473035025,Restaurant
The Woollen Mills,53.34675628299061,-6.2633005305097855,Restaurant
The Mongolian Barbeque,53.344891917084475,-6.2619443156793215,Restaurant
Banyi Japanese Dining,53.345854132753885,-6.261795992818935,Restaurant
Hard Rock Cafe Dublin,53.34587806790945,-6.260866414103473,Restaurant
Sitar,53.345665,-6.262734,Restaurant
Terra Madre,53.34674386710065,-6.261849757652849,Restaurant
Elephant & Castle,53.34565371111506,-6.26217442997521,Restaurant
Mission Mexican Street Food,53.34681930812216,-6.263197232153089,Restaurant
Hanley's Cornish Pasties,53.345582559726495,-6.262914137405034,Restaurant
Bach 16,53.34698780492796,-6.261565436157423,Restaurant
Old Mill,53.3455928118447,-6.262976171134825,Restaurant
Chopped,53.34583595564536,-6.259357348257059,Restaurant
Thai Orchid,53.34580172203244,-6.259269779539863,Restaurant
The Vintage Kitchen,53.346902,-6.255632,Restaurant
Japanese Kitchen @ J2,53.34689683534879,-6.257115493023353,Restaurant
KuRaud,53.34590148925781,-6.255645751953125,Restaurant
Morelands Grill,53.345665472550316,-6.259082236877326,Restaurant
Charlies III,53.34621549686314,-6.258996518268923,Restaurant
KFC,53.34631035973934,-6.259166455740157,Restaurant
McCabe's Deli,53.345829103496435,-6.255085262104678,Restaurant
Medley Café Bistro,53.34584399999999,-6.257665,Restaurant
Medley by Andrew Rudd,53.345944,-6.258217,Restaurant
Mona Lisa Restaurant,53.34594499999999,-6.2571726,Restaurant
Iskender Kebab House,53.344989298836744,-6.258130027667715,Restaurant
J's Noodle & Sushi House,53.346827203224535,-6.2569096531352,Restaurant
The Exchange,53.345679262250975,-6.2590825927397065,Restaurant
The Bagel Bar,53.34691234921344,-6.255985,Restaurant
Subway,53.345822801376286,-6.259142283767579,Restaurant
Freshly Chopped,53.34590558723775,-6.259259614560298,Restaurant
Supermac's,53.3462161362488,-6.259118280392133,Restaurant
Cafe DeliGold,53.345679711696775,-6.25124469348773,Restaurant
SPROUT Kitchen,53.34650601341773,-6.243399293054705,Restaurant
O2 staff canteen,53.34593348906891,-6.242005906070294,Restaurant
Munchies,53.34621562889583,-6.241068464814602,Restaurant
Waterways Lunchtime Markets,53.345463739629686,-6.241237697896357,Restaurant
Stir Cafe,53.345462874968526,-6.241085751244548,Restaurant
Stir Restaurant,53.34522815676154,-6.240683055986635,Restaurant
Blue River Bistro,53.347007870069845,-6.237899764935454,Restaurant
The O2 Crew Catering,53.34668816620539,-6.2283500830508265,Restaurant
FXB Grill @ Ryans,53.34804631247643,-6.293730160679227,Restaurant
Subway,53.34825172956962,-6.294400416977737,Restaurant
Romayo's,53.347988,-6.294875,Restaurant
The Natural Bakery,53.348180000000006,-6.2941275,Restaurant
F.X. Buckley,53.348003153859615,-6.290962484034683,Restaurant
Chesterfields Brasserie,53.34786373193828,-6.290980638043162,Restaurant
Wuff,53.347404061456565,-6.282413341418848,Restaurant
Fish Shop,53.3473512929815,-6.281938208922982,Restaurant
My Meat Wagon,53.348729719511496,-6.278650071812224,Restaurant
Boojum,53.34826218970272,-6.2783851085084486,Restaurant
Oscars Café Bar,53.34863217787676,-6.278501712977084,Restaurant
Bel Cibo,53.348569134862096,-6.278632467740171,Restaurant
Chopped,53.34812863616065,-6.2784505845899865,Restaurant
Sparks Bistro,53.3486033436594,-6.2775898013450036,Restaurant
Freshii,53.34841,-6.2778378,Restaurant
Subway,53.348657,-6.278139,Restaurant
Shangri La Malaysian Restaurant,53.349053420263004,-6.27856229807092,Restaurant
3rd Still Restaurant,53.34812602234826,-6.277158262190901,Restaurant
Brendans,53.348051695634396,-6.2715378847453405,Restaurant
Aobaba,53.34880076115093,-6.268863616298785,Restaurant
Hilan Korean & Chinese Restaurant,53.34866097636511,-6.268820096961753,Restaurant
Ephesus Kebabs & Pizzas,53.347214,-6.268186599999999,Restaurant
Doppio Zero,53.34737458117922,-6.26776555224751,Restaurant
Arisu,53.34892208383444,-6.268963589655413,Restaurant
Brothers Dosirak,53.34766236760908,-6.2681210956150855,Restaurant
Old Town,53.34873856655396,-6.268833577997106,Restaurant
Madina Desi Curry Co,53.34856484251161,-6.268150701840928,Restaurant
Turkish Pizza & Kebab,53.34721674546795,-6.268228697554151,Restaurant
Kopitiam,53.3491404113576,-6.269004055089807,Restaurant
Soup Dragon,53.34630321713481,-6.267984618111447,Restaurant
Ayla Foods,53.347824,-6.268353,Restaurant
Super Asia Food 恒辉食品,53.347658,-6.268447,Restaurant
Fusciardi's,53.346719952300035,-6.268013859789763,Restaurant
Little Brothers,53.347253,-6.268265,Restaurant
Umi Falafel,53.348507,-6.2681875,Restaurant
Boojum,53.347371000483605,-6.265437556567062,Restaurant
Ichiman,53.347690969695044,-6.263597792142745,Restaurant
Koh Restaurant & Cocktail Lounge,53.347413706367426,-6.2655894268340075,Restaurant
Takara,53.347916889134396,-6.264157286811007,Restaurant
Nando's,53.34882082,-6.26724673,Restaurant
Kokoro,53.34773898696994,-6.263548033073118,Restaurant
Govindas,53.348333019460675,-6.260665254208553,Restaurant
The Rolling Donut,53.34750011656556,-6.259747340629373,Restaurant
Eddie Rocket's,53.34780492477864,-6.2598269031229865,Restaurant
Boojum,53.3486276078712,-6.25885128566537,Restaurant
Offbeat Donut Co,53.34743514947651,-6.255535131402677,Restaurant
O'Briens Sandwich Cafe,53.3486573264986,-6.2582244760460535,Restaurant
Donut Kiosk,53.34811764145933,-6.259503364562987,Restaurant
The Workshop,53.34755462898557,-6.2547814428971735,Restaurant
Burger King,53.34780735436628,-6.259402634429216,Restaurant
Jimmy Chung's,53.34771439820321,-6.25822994838436,Restaurant
McDonald's,53.34792467121861,-6.259601930084496,Restaurant
The Pig & Heifer,53.34720714226805,-6.249741614827223,Restaurant
The Bakehouse Express,53.34908159813594,-6.247833135841963,Restaurant
TOSS'D Noodles & Salads,53.34887381897068,-6.247885990959056,Restaurant
J2 Sushi & Tea,53.34877754690367,-6.247973357330563,Restaurant
freshii,53.349109885659104,-6.247866700513531,Restaurant
Olys Bar & Restaurant,53.348051721347616,-6.246441207024803,Restaurant
J2 Grill & Sushi,53.34771247771018,-6.243839757690938,Restaurant
Rocket's,53.34765866346021,-6.2434389316704255,Restaurant
Drunken Fish,53.34933267800705,-6.244476268934863,Restaurant
Broadway Pizza Parlor,53.34901302595554,-6.245502753208994,Restaurant
Borlottie,53.348616907614115,-6.2435896635815356,Restaurant
Milano,53.34791510000001,-6.2438818,Restaurant
EAST,53.34794853570335,-6.243669612957497,Restaurant
Burritos & Blues,53.34928619299484,-6.244376231276678,Restaurant
Subway,53.34926015441136,-6.244253306177567,Restaurant
Munchies,53.34918144097053,-6.2435105616795905,Restaurant
Foodie IFSC,53.349148937571385,-6.2433334110669065,Restaurant
Il Fornaio,53.34924689246446,-6.243050536955006,Restaurant
La Corte,53.349206159366034,-6.2433614653016924,Restaurant
Bar Italia,53.349215277167005,-6.243393345029293,Restaurant
The Bottle Boy,53.347164,-6.232548,Restaurant
Coda Eatery,53.34849384286574,-6.2281620274647675,Restaurant
Freshii,53.348415,-6.2282567,Restaurant
Ruby's,53.348447,-6.227837999999998,Restaurant
Eddie Rocket's,53.348628219214895,-6.227921827053024,Restaurant
Ri Ri Chinese Take Away,53.34744879401025,-6.289199105290601,Restaurant
L. Mulligan Grocer,53.35097554223025,-6.28224392315904,Restaurant
Shangri La,53.35084000000001,-6.282299,Restaurant
Tommy O'Gara's Pub,53.35099273347039,-6.2824467674158395,Restaurant
Canton City,53.351202180844425,-6.282842186107688,Restaurant
Grano,53.351298,-6.282957,Restaurant
The Cobblestone,53.349799,-6.277846,Restaurant
Namaste India,53.34956137326365,-6.279032883572997,Restaurant
Cafe Oasis,53.34996181464473,-6.275696558806278,Restaurant
Tokyo Kitchen,53.34929399999999,-6.276035,Restaurant
Subway,53.350800661007135,-6.277940814277611,Restaurant
Coxinharia,53.349945,-6.275747,Restaurant
El Patron,53.350662,-6.2708497,Restaurant
The Black Sheep,53.34970836375576,-6.269065530881151,Restaurant
BoCo,53.35135331510861,-6.269949207441716,Restaurant
Eddie Rocket's,53.35031686340225,-6.267307987006234,Restaurant
On the pig's back eatery,53.349912,-6.269216,Restaurant
Wing’s World Cuisine,53.348871,-6.267512,Restaurant
Fabi’s Grill,53.350226,-6.267073,Restaurant
O'Briens Sandwich Cafe,53.35055096927522,-6.264172755392374,Restaurant
Cafe Cucina,53.35037115165361,-6.266457011244848,Restaurant
Wowburger,53.35033995572315,-6.266960108643753,Restaurant
Cuccina Italiana,53.35035670856024,-6.266658640681169,Restaurant
Ann's Bakery,53.34902286742607,-6.265333314168911,Restaurant
Burger King,53.347878827327506,-6.265891979999447,Restaurant
McDonald's,53.35093934523343,-6.2645293172658,Restaurant
McDonald's,53.34872180179637,-6.266608678603761,Restaurant
Burger King,53.35084870561733,-6.264587662477355,Restaurant
Rocket's by Eddie Rockets,53.34824720000001,-6.2656043,Restaurant
Off Beat Donut Co,53.349916,-6.26395,Restaurant
Sbarro Pizza Bar,53.34811764145933,-6.266029179096223,Restaurant
Chopped,53.350738,-6.264506,Restaurant
Chopsticks,53.35071102019079,-6.264333395933543,Restaurant
Dakoi Oriental Cafe,53.347531,-6.265558,Restaurant
Subway,53.34754960117032,-6.26535822453684,Restaurant
KFC,53.34816424175918,-6.266122368455366,Restaurant
The Bagel Bar,53.350653334195115,-6.2642131826828695,Restaurant
Kingfisher Restaurant,53.35166292414189,-6.26326478251974,Restaurant
Bun Cha,53.35015600000001,-6.262494,Restaurant
Musashi,53.351138,-6.264117,Restaurant
Fujiyama Sushi,53.35062459166085,-6.260559786567973,Restaurant
Sabor Nordestino,53.35112292440372,-6.263238072882104,Restaurant
KFC,53.35116199827328,-6.2642198292536815,Restaurant
The Bagel Bar,53.34785946063154,-6.263676650526314,Restaurant
Bóbó's Gourmet Irish Burgers,53.34831526641665,-6.260464796192932,Restaurant
Fusion Brazilian Grill,53.347402188959244,-6.263026583806519,Restaurant
Flanagan's Restaurant,53.35034263039,-6.260534461401218,Restaurant
Saburritos,53.34992221497285,-6.259645971369992,Restaurant
Clodagh's Kitchen,53.34886590084795,-6.263158483255526,Restaurant
Beshoff Fish & Chips,53.3502920594828,-6.260412275147675,Restaurant
Buffet 79,53.35011200819327,-6.262428598484286,Restaurant
Leo Burdock's,53.347587947076576,-6.263335164439628,Restaurant
Istanbel Kebab,53.34749587104182,-6.263396431762202,Restaurant
Hot Wok Noodle Bar,53.34998605575306,-6.259711233514477,Restaurant
10 Thousand Asian Food Restaurant,53.34788589335125,-6.264045503758553,Restaurant
Carlos Restaurant,53.35038683504421,-6.260730943787595,Restaurant
Clodagh's Food Court,53.348649,-6.263173,Restaurant
Full House,53.348191,-6.26181,Restaurant
Taco Taco,53.347683,-6.2629160000000015,Restaurant
Dragon Buffet,53.34819399999999,-6.2618403,Restaurant
Itsa,53.34821,-6.2623696,Restaurant
Homemade by Clodagh,53.348933,-6.26316,Restaurant
Istanbul,53.34781962354498,-6.26309619453043,Restaurant
Subway,53.349130085389994,-6.261720286382798,Restaurant
Cafe Carlo,53.350259,-6.260433,Restaurant
Mamma Mia,53.34757965201679,-6.263236999511719,Restaurant
Ramos Greek Bistro & Restaurant Mezze Bar,53.34755246976089,-6.2630267357193405,Restaurant
The Balkan Restaurant,53.351487,-6.26335,Restaurant
Istanbul Kebab&Pizza House,53.34743437579372,-6.263519083233637,Restaurant
The Hot Donut,53.35025699999999,-6.2600940000000005,Restaurant
Noodle Bar,53.34994692983432,-6.2597117776224565,Restaurant
Bagel Factory,53.347284830991036,-6.26347645728834,Restaurant
Burger King,53.35056670201071,-6.2604683363177145,Restaurant
China Castle,53.34812780618477,-6.2621748802612665,Restaurant
McDonald's,53.35030981794639,-6.260533164256865,Restaurant
La Pizza,53.35099183514287,-6.26066396520283,Restaurant
101 Talbot,53.35028657261064,-6.257196461739073,Restaurant
M&L,53.35057107216389,-6.259538876695768,Restaurant
Toto Ristorante Italiano,53.35032828429686,-6.257103990365628,Restaurant
The Wooden Whisk,53.350304,-6.2564692000000015,Restaurant
Wing's Gourmet Burger,53.351503139466715,-6.261026830534759,Restaurant
The Italian Connection,53.35036410569785,-6.256649022658013,Restaurant
Papa John’s,53.348368053091924,-6.259741268065348,Restaurant
Supermac's,53.34827195351738,-6.2596526009283435,Restaurant
Celtic Nights,53.34734488870758,-6.260878148577534,Restaurant
Chopped,53.34873,-6.2593093,Restaurant
Ann's Bakery,53.35006260831882,-6.259341481815869,Restaurant
Eatokyo,53.35035,-6.2574744,Restaurant
Alper Turkish Cuisine,53.350143,-6.257433,Restaurant
Burger Hut,53.350264203816366,-6.257633215049705,Restaurant
Wok and Go,53.349782803849145,-6.258366107940674,Restaurant
Pa Pa Pizzeria,53.350136,-6.257663,Restaurant
